School Name,District Name,Reading/Writing Score,Math Scores,Grads_Mskd,Exnees_Mskd,Part_Rate,Crit_Mskd,Above_Crit_Rate,TSI_Both_Mskd,Above_TSI_Both_Rate,state_name_x,latitude,longitude,address,zip_code,county_name_x,city_name,county_code,Street Address,Tract,unique_id,year,tract_number,county_name_y,state_name_y,Population 18 to 24 years (estimate),"18-24, less than high school graduate (estimate)","18-24, high school graduate or eq. (estimate)","18-24, some college or associate's degree (estimate)","18-24, bachelor's degree or higher",Population 25 years and over (estimate),"25 and over, less than 9th grade (estimate)","25 and over, 9th to 12th grade, no diploma (estimate)","25 and over, high school graduate or eq. (estimate)","25 and over, some college, no degree (estimate)","25 and over, associate's degree (estimate)","25 and over, bachelor's degree (estimate)","25 and over, graduate or professional degree (estimate)","18-24, less than high school graduate (percentage)","18-24, high school graduate or eq. (percentage)","18-24, some college or associate's degree (percentage)","18-24, bachelor's degree or higher (percentage)","25 and over, less than 9th grade (percentage)","25 and over, 9th to 12th grade, no diploma (percentage)","25 and over, high school graduate or eq. (percentage)","25 and over, some college, no degree (percentage)","25 and over, associate's degree (percentage)","25 and over, bachelor's degree (percentage)","25 and over, graduate or professional degree (percentage)",Total number of households,Median household income (dollars),Mean household income (dollars),Total population,Hispanic or Latino (estimate),Hispanic or Latino (percentage),Not Hispanic or Latino (estimate),Not Hispanic or Latino (percentage),White alone (estimate),White alone (percentage),Black or African American alone (estimate),Black or African American alone (percentage),American Indian and Alaska Native alone (estimate),American Indian and Alaska Native alone (percentage),Asian alone (estimate),Asian alone (percentage),Native Hawaiian and Other Pacific Islander alone (estimate),Native Hawaiian and Other Pacific Islander alone (percentage),Some other race alone (estimate),Some other race alone (percentage),Two or more races alone (estimate),Two or more races alone (percentage),RW Scores
Cayuga H S,Cayuga ISD,536,547,<50,<25,50,<25,20.8,<25,62.5,Texas,31.9223523,-95.9237207,17750 North US Highway 287,75861,Anderson County,Bethel,48001,"17750 North US Highway 287, Bethel, Texas, 75861",951100,48001951100,2019,951100,Anderson County,Texas,257,13,102,105,37,3578,191,151,1236,1031,435,311,223,5.1,39.7,40.9,14.4,5.3,4.2,34.5,28.8,12.2,8.7,6.2,1841,56553,67093,4840,408,8.4,4432,91.6,3737,77.2,324,6.7,8,0.2,152,3.1,0,0,0,0,211,4.4,536
Elkhart H S,Elkhart ISD,555,520,<100,<50,38.8,<25,22.6,<25,41.9,Texas,31.6556921,-95.582224,9002 Texas 19,75839,Anderson County,Elkhart,48001,"9002 Texas 19, Elkhart, Texas, 75839",951002,48001951002,2019,951002,Anderson County,Texas,116,52,32,32,0,2314,88,142,963,530,204,266,121,44.8,27.6,27.6,0,3.8,6.1,41.6,22.9,8.8,11.5,5.2,1213,59113,69040,3326,312,9.4,3014,90.6,2719,81.7,265,8,0,0,13,0.4,0,0,16,0.5,1,0,555
Frankston H S,Frankston ISD,506,485,<25,<75,100,<25,8.2,<25,27.9,Texas,32.0616537,-95.5050231,100 Perry Street,75763,Anderson County,Frankston,48001,"100 Perry Street, Frankston, Texas, 75763",950100,48001950100,2019,950100,Anderson County,Texas,281,64,195,22,0,3389,119,177,1124,975,337,388,269,22.8,69.4,7.8,0,3.5,5.2,33.2,28.8,9.9,11.4,7.9,1779,59675,74859,4958,409,8.2,4549,91.8,3811,76.9,267,5.4,20,0.4,50,1,0,0,2,0,399,8,506
Neches H S,Neches ISD,536,529,<25,<25,72.7,<25,25,<25,50,Texas,31.8968767,-95.4987565,,N/A,Anderson County,N/A,48001,,950100,48001950100,2019,950100,Anderson County,Texas,281,64,195,22,0,3389,119,177,1124,975,337,388,269,22.8,69.4,7.8,0,3.5,5.2,33.2,28.8,9.9,11.4,7.9,1779,59675,74859,4958,409,8.2,4549,91.8,3811,76.9,267,5.4,20,0.4,50,1,0,0,2,0,399,8,536
Palestine H S,Palestine ISD,515,513,207,75,36.2,11,14.7,31,41.3,Texas,31.738417,-95.6055707,1600 Texas 256 Loop,75801,Anderson County,Palestine,48001,"1600 Texas 256 Loop, Palestine, Texas, 75801",950800,48001950800,2019,950800,Anderson County,Texas,570,22,339,162,47,4057,73,111,1782,788,367,480,456,3.9,59.5,28.4,8.2,1.8,2.7,43.9,19.4,9,11.8,11.2,2642,45587,58120,6049,890,14.7,5159,85.3,2992,49.5,1822,30.1,24,0.4,84,1.4,0,0,0,0,237,3.9,515
Westwood H S,Westwood ISD,519,505,<75,<50,41.7,<25,10,<25,30,Texas,31.7302275,-95.6802595,1820 Panther Boulevard,75803,Anderson County,Palestine,48001,"1820 Panther Boulevard, Palestine, Texas, 75803",950600,48001950600,2019,950600,Anderson County,Texas,524,257,213,54,0,3104,112,732,1210,753,109,144,44,49,40.6,10.3,0,3.6,23.6,39,24.3,3.5,4.6,1.4,1622,39936,62111,4704,404,8.6,4300,91.4,2963,63,1268,27,0,0,0,0,0,0,0,0,69,1.5,519
Slocum H S,Slocum ISD,539,517,<25,<25,90.9,<25,5,<25,45,Texas,31.6319962,-95.4622184,5765 Texas 294,75839,Anderson County,Elkhart,48001,"5765 Texas 294, Elkhart, Texas, 75839",951001,48001951001,2019,951001,Anderson County,Texas,633,95,316,206,16,2586,18,141,984,775,152,327,189,15,49.9,32.5,2.5,0.7,5.5,38.1,30,5.9,12.6,7.3,1479,52198,86137,4216,467,11.1,3749,88.9,3541,84,182,4.3,0,0,26,0.6,0,0,0,0,0,0,539
Andrews H S,Andrews ISD,516,511,<250,<75,28.2,<25,17.6,<50,36.8,Texas,32.3255514,-102.5680033,1400 Northwest Avenue K,79714,Andrews County,Andrews,48003,"1400 Northwest Avenue K, Andrews, Texas, 79714",950200,48003950200,2019,950200,Andrews County,Texas,493,21,215,246,11,4710,474,414,1389,1178,505,475,275,4.3,43.6,49.9,2.2,10.1,8.8,29.5,25,10.7,10.1,5.8,2540,75965,91068,7331,3791,51.7,3540,48.3,3274,44.7,57,0.8,0,0,57,0.8,26,0.4,0,0,126,1.7,516
Pineywoods Community Academy H S,Pineywoods Community Academy,510,477,<75,<50,81.8,<25,17.8,<25,26.7,Texas,31.9685988,-99.9018131,,N/A,Runnels County,N/A,48399,,950100,48399950100,2019,950100,Runnels County,Texas,94,45,31,18,0,925,49,26,298,206,66,252,28,47.9,33,19.1,0,5.3,2.8,32.2,22.3,7.1,27.2,3,518,58182,84798,1210,172,14.2,1038,85.8,978,80.8,32,2.6,0,0,0,0,0,0,0,0,28,2.3,510
Hudson H S,Hudson ISD,538,540,196,130,66.3,35,26.9,64,49.2,Texas,31.3150453,-94.8274883,6735 Ted Trout Drive,75904,Angelina County,Lufkin,48005,"6735 Ted Trout Drive, Lufkin, Texas, 75904",102,48005000102,2019,102,Angelina County,Texas,210,10,112,35,53,3274,110,133,1005,744,453,659,170,4.8,53.3,16.7,25.2,3.4,4.1,30.7,22.7,13.8,20.1,5.2,1927,61298,85644,5083,289,5.7,4794,94.3,4526,89,147,2.9,5,0.1,85,1.7,0,0,21,0.4,10,0.2,538
Lufkin H S,Lufkin ISD,518,517,477,263,55.1,56,21.3,108,41.1,Texas,31.3355579,-94.6885604,309 South Medford Drive,75901,Angelina County,Lufkin,48005,"309 South Medford Drive, Lufkin, Texas, 75901",600,48005000600,2019,600,Angelina County,Texas,910,86,485,308,31,3688,649,482,1309,794,105,309,40,9.5,53.3,33.8,3.4,17.6,13.1,35.5,21.5,2.8,8.4,1.1,1691,39271,48134,6443,3831,59.5,2612,40.5,995,15.4,1495,23.2,0,0,77,1.2,0,0,0,0,45,0.7,518
Huntington H S,Huntington ISD,532,532,<125,<75,60.7,<25,21.5,<50,52.3,Texas,31.2637104,-94.5740147,952 South Gibson Street,75949,Angelina County,Huntington,48005,"952 South Gibson Street, Huntington, Texas, 75949",1101,48005001101,2019,1101,Angelina County,Texas,138,30,67,12,29,2700,49,247,1124,633,316,249,82,21.7,48.6,8.7,21,1.8,9.1,41.6,23.4,11.7,9.2,3,1267,61431,78957,3585,370,10.3,3215,89.7,3104,86.6,23,0.6,0,0,7,0.2,0,0,0,0,81,2.3,532
Diboll H S,Diboll ISD,516,518,<125,<50,42.7,<25,17,<25,40.4,Texas,31.1926292,-94.7681288,1000 Lumberjack Drive,75941,Angelina County,Diboll,48005,"1000 Lumberjack Drive, Diboll, Texas, 75941",1002,48005001002,2019,1002,Angelina County,Texas,268,13,172,83,0,2597,267,262,791,600,187,307,183,4.9,64.2,31,0,10.3,10.1,30.5,23.1,7.2,11.8,7,1350,57031,79819,3922,1336,34.1,2586,65.9,1949,49.7,507,12.9,0,0,64,1.6,0,0,4,0.1,62,1.6,516
Zavalla H S,Zavalla ISD,497,469,<50,<25,37.1,<25,7.7,<25,15.4,Texas,31.1434138,-94.356513,,N/A,Angelina County,N/A,48005,,1200,48005001200,2019,1200,Angelina County,Texas,146,79,28,39,0,1744,27,247,632,587,117,109,25,54.1,19.2,26.7,0,1.5,14.2,36.2,33.7,6.7,6.3,1.4,1020,35500,56888,2380,16,0.7,2364,99.3,2315,97.3,9,0.4,0,0,8,0.3,0,0,0,0,32,1.3,497
Central H S,Central ISD,525,520,89,48,53.9,11,22.9,19,39.6,Texas,31.4300897,-94.8123595,7622 U.S. 69,75969,Angelina County,Pollok,48005,"7622 U.S. 69, Pollok, Texas, 75969",103,48005000103,2019,103,Angelina County,Texas,330,0,24,214,92,2475,300,253,553,478,206,483,202,0,7.3,64.8,27.9,12.1,10.2,22.3,19.3,8.3,19.5,8.2,1021,85807,85162,3649,27,0.7,3622,99.3,3133,85.9,367,10.1,12,0.3,110,3,0,0,0,0,0,0,525
Rockport-Fulton H S,Aransas County ISD,526,496,<225,<125,46.1,<25,19,<50,35,Texas,28.0408019,-97.0450123,1801 Omohundro Street,78382,Aransas County,Rockport,48007,"1801 Omohundro Street, Rockport, Texas, 78382",950302,48007950302,2019,950302,Aransas County,Texas,258,40,0,120,98,2543,69,74,542,380,234,862,382,15.5,0,46.5,38,2.7,2.9,21.3,14.9,9.2,33.9,15,1270,102672,107000,3355,515,15.4,2840,84.6,2759,82.2,4,0.1,0,0,0,0,0,0,0,0,77,2.3,526
Archer City H S,Archer City ISD,549,530,<50,<25,46.4,<25,30.8,<25,53.8,Texas,33.5905926,-98.6354816,416-488 South Popular Street,76351,Archer County,Archer City,48009,"416-488 South Popular Street, Archer City, Texas, 76351",20300,48009020300,2019,20300,Archer County,Texas,344,19,127,168,30,2358,129,148,987,520,76,377,121,5.5,36.9,48.8,8.7,5.5,6.3,41.9,22.1,3.2,16,5.1,1396,56556,69926,3477,457,13.1,3020,86.9,2886,83,87,2.5,21,0.6,0,0,0,0,0,0,26,0.7,549
Holliday H S,Holliday ISD,586,560,74,25,33.8,13,52,18,72,Texas,33.8079075,-98.6885471,751 South College Avenue,76366,Archer County,Holliday,48009,"751 South College Avenue, Holliday, Texas, 76366",20200,48009020200,2019,20200,Archer County,Texas,230,30,60,140,0,1766,26,207,771,359,96,193,114,13,26.1,60.9,0,1.5,11.7,43.7,20.3,5.4,10.9,6.5,1024,50208,76799,2529,152,6,2377,94,2267,89.6,0,0,44,1.7,0,0,0,0,2,0.1,64,2.5,586
Charlotte H S,Charlotte ISD,475,493,<50,<25,25.6,<25,,<25,30,Texas,28.8622271,-98.7031993,70 Trojan Drive,78011,Atascosa County,Charlotte,48013,"70 Trojan Drive, Charlotte, Texas, 78011",960500,48013960500,2019,960500,Atascosa County,Texas,191,118,39,34,0,1583,318,182,566,303,53,135,26,61.8,20.4,17.8,0,20.1,11.5,35.8,19.1,3.3,8.5,1.6,877,41295,53947,2566,1819,70.9,747,29.1,733,28.6,14,0.5,0,0,0,0,0,0,0,0,0,0,475
Jourdanton H S,Jourdanton ISD,535,505,<125,<50,26.2,<25,10.7,<25,42.9,Texas,28.9102359,-98.5413105,200 Zanderson Avenue,78026,Atascosa County,Jourdanton,48013,"200 Zanderson Avenue, Jourdanton, Texas, 78026",960602,48013960602,2019,960602,Atascosa County,Texas,121,0,117,4,0,2302,115,125,1070,317,0,546,129,0,96.7,3.3,0,5,5.4,46.5,13.8,0,23.7,5.6,1280,69930,101338,3206,1072,33.4,2134,66.6,2033,63.4,12,0.4,0,0,0,0,0,0,0,0,89,2.8,535
Lytle H S,Lytle ISD,498,486,<125,<50,38.5,<25,14.3,<25,23.8,Texas,29.2372722,-98.806751,18975 West Farm to Market 2790 South,78052,Medina County,Lytle,48325,"18975 West Farm to Market 2790 South, Lytle, Texas, 78052",402,48325000402,2019,401,Medina County,Texas,464,76,213,175,0,3202,154,282,1385,704,209,346,122,16.4,45.9,37.7,0,4.8,8.8,43.3,22,6.5,10.8,3.8,1396,52195,81894,4566,2192,48,2374,52,2341,51.3,10,0.2,16,0.4,7,0.2,0,0,0,0,0,0,498
Pleasanton H S,Pleasanton ISD,509,497,221,130,58.8,9,6.9,39,30,Texas,28.9653314,-98.4939658,900 West Adams Street,78064,Atascosa County,Pleasanton,48013,"900 West Adams Street, Pleasanton, Texas, 78064",960102,48013960102,2019,960102,Atascosa County,Texas,387,48,180,159,0,2906,266,422,1057,458,164,410,129,12.4,46.5,41.1,0,9.2,14.5,36.4,15.8,5.6,14.1,4.4,1506,63472,80721,4600,3079,66.9,1521,33.1,1388,30.2,62,1.3,0,0,33,0.7,0,0,0,0,38,0.8,509
Poteet H S,Poteet ISD,495,469,<125,<50,38.1,<25,2.2,<25,13.3,Texas,29.0442153,-98.5666541,1000 Farm to Market Road 1470,78065,Atascosa County,Poteet,48013,"1000 Farm to Market Road 1470, Poteet, Texas, 78065",960300,48013960300,2019,960300,Atascosa County,Texas,264,27,137,100,0,2535,203,292,1172,441,137,200,90,10.2,51.9,37.9,0,8,11.5,46.2,17.4,5.4,7.9,3.6,1148,52422,61698,3631,3113,85.7,518,14.3,445,12.3,0,0,17,0.5,56,1.5,0,0,0,0,0,0,495
Bellville H S,Bellville ISD,555,560,170,91,53.5,33,36.3,55,60.4,Texas,29.9247536,-96.25175,850 Schumann Road,77418,Austin County,Bellville,48015,"850 Schumann Road, Bellville, Texas, 77418",760502,48015760502,2019,760502,Austin County,Texas,686,106,434,117,29,3665,340,245,1034,1008,220,629,189,15.5,63.3,17.1,4.2,9.3,6.7,28.2,27.5,6,17.2,5.2,2055,52670,63713,5594,1475,26.4,4119,73.6,3317,59.3,775,13.9,27,0.5,0,0,0,0,0,0,0,0,555
Sealy H S,Sealy ISD,516,512,175,80,45.7,20,25,31,38.8,Texas,29.76214,-96.174422,2372 Championship Drive,77474,Austin County,Sealy,48015,"2372 Championship Drive, Sealy, Texas, 77474",760302,48015760302,2019,760302,Austin County,Texas,461,98,205,112,46,3090,184,188,1204,957,101,334,122,21.3,44.5,24.3,10,6,6.1,39,31,3.3,10.8,3.9,1748,86012,99216,4777,1880,39.4,2897,60.6,2562,53.6,335,7,0,0,0,0,0,0,0,0,0,0,516
Brazos H S,Brazos ISD,520,507,<50,<50,61,<25,8,<25,40,Texas,29.6192408,-96.0359779,16621 Texas 36,77485,Austin County,Wallis,48015,"16621 Texas 36, Wallis, Texas, 77485",760100,48015760100,2019,760100,Austin County,Texas,128,8,76,44,0,1725,97,126,716,487,113,154,32,6.3,59.4,34.4,0,5.6,7.3,41.5,28.2,6.6,8.9,1.9,1019,38750,59286,2578,867,33.6,1711,66.4,1142,44.3,356,13.8,0,0,0,0,0,0,57,2.2,156,6.1,520
Muleshoe H S,Muleshoe ISD,449,452,<100,<100,98.9,<25,5.6,<25,14.6,Texas,34.2225009,-102.7314319,800 West 3rd Street,79347,Bailey County,Muleshoe,48017,"800 West 3rd Street, Muleshoe, Texas, 79347",950101,48017950101,2019,950101,Bailey County,Texas,524,165,336,23,0,2486,233,247,1137,347,181,207,134,31.5,64.1,4.4,0,9.4,9.9,45.7,14,7.3,8.3,5.4,1249,44042,62573,4294,2887,67.2,1407,32.8,1271,29.6,20,0.5,69,1.6,47,1.1,0,0,0,0,0,0,449
Medina School,Medina ISD,512,475,<25,<25,70.8,<25,5.9,<25,11.8,Texas,29.7994493,-99.2484194,1 Bobcat Lane,78055,Bandera County,Medina,48019,"1 Bobcat Lane, Medina, Texas, 78055",200,48019000200,2019,200,Bandera County,Texas,219,58,66,65,30,2420,69,82,939,646,133,321,230,26.5,30.1,29.7,13.7,2.9,3.4,38.8,26.7,5.5,13.3,9.5,1195,58971,83025,3169,390,12.3,2779,87.7,2693,85,82,2.6,4,0.1,0,0,0,0,0,0,0,0,512
Bandera H S,Bandera ISD,552,526,129,81,62.8,22,27.2,41,50.6,Texas,29.7334314,-99.0616893,474 Old San Antonio Road,78003,Bandera County,Bandera,48019,"474 Old San Antonio Road, Bandera, Texas, 78003",103,48019000103,2019,103,Bandera County,Texas,359,8,215,136,0,3164,234,315,1021,602,268,622,102,2.2,59.9,37.9,0,7.4,10,32.3,19,8.5,19.7,3.2,1469,53507,65825,4302,946,22,3356,78,3120,72.5,36,0.8,0,0,0,0,0,0,0,0,200,4.6,552
Bastrop H S,Bastrop ISD,537,514,312,159,51,37,23.3,73,45.9,Texas,30.1179864,-97.3115432,1614 Chambers Street,78602,Bastrop County,Bastrop,48021,"1614 Chambers Street, Bastrop, Texas, 78602",950401,48021950401,2019,950401,Bastrop County,Texas,689,0,472,104,113,3226,42,285,935,726,221,661,356,0,68.5,15.1,16.4,1.3,8.8,29,22.5,6.9,20.5,11,1919,50958,80300,4686,1091,23.3,3595,76.7,3267,69.7,255,5.4,20,0.4,53,1.1,0,0,0,0,0,0,537
Cedar Creek H S,Bastrop ISD,506,505,<275,<150,54.4,<50,17.7,<75,40.1,Texas,30.138126,-97.471385,793 Union Chapel Road,78612,Bastrop County,Cedar Creek,48021,"793 Union Chapel Road, Cedar Creek, Texas, 78612",950303,48021950303,2019,950303,Bastrop County,Texas,404,47,229,65,63,4305,658,279,1308,985,215,687,173,11.6,56.7,16.1,15.6,15.3,6.5,30.4,22.9,5,16,4,1908,69847,79688,7062,3056,43.3,4006,56.7,3545,50.2,314,4.4,0,0,0,0,0,0,0,0,147,2.1,506
Colorado River Collegiate Academy,Bastrop ISD,566,537,<50,<50,84.8,<25,33.3,<25,51.3,Texas,30.117392,-97.3154422,1600 Hill Street,78602,Bastrop County,Bastrop,48021,"1600 Hill Street, Bastrop, Texas, 78602",950401,48021950401,2019,950401,Bastrop County,Texas,689,0,472,104,113,3226,42,285,935,726,221,661,356,0,68.5,15.1,16.4,1.3,8.8,29,22.5,6.9,20.5,11,1919,50958,80300,4686,1091,23.3,3595,76.7,3267,69.7,255,5.4,20,0.4,53,1.1,0,0,0,0,0,0,566
Elgin H S,Elgin ISD,453,451,<300,<275,89.9,<25,6.4,<50,15.8,Texas,30.366256,-97.4041724,14000 County Line Road,78621,Travis County,Elgin,48453,"14000 County Line Road, Elgin, Texas, 78621",45800,48453045800,2019,45800,Travis County,Texas,135,43,7,85,0,1919,462,73,653,322,130,141,138,31.9,5.2,63,0,24.1,3.8,34,16.8,6.8,7.3,7.2,797,66853,74078,3442,2357,68.5,1085,31.5,729,21.2,153,4.4,0,0,44,1.3,0,0,0,0,159,4.6,453
Phoenix H S,Elgin ISD,383,368,<25,<25,39.1,<25,,<25,,Texas,30.3431045,-97.3732655,,N/A,Bastrop County,N/A,48021,,950202,48021950202,2019,950202,Bastrop County,Texas,654,188,364,102,0,4064,649,262,1616,709,104,419,305,28.7,55.7,15.6,0,16,6.4,39.8,17.4,2.6,10.3,7.5,1732,74537,86401,6249,2679,42.9,3570,57.1,2051,32.8,1501,24,0,0,18,0.3,0,0,0,0,0,0,383
Smithville H S,Smithville ISD,534,534,137,78,56.9,20,25.6,42,53.8,Texas,29.9980617,-97.1664756,285 State Highway 95,78957,Bastrop County,Smithville,48021,"285 State Highway 95, Smithville, Texas, 78957",950700,48021950700,2019,950700,Bastrop County,Texas,422,73,203,146,0,3350,185,197,993,1059,222,507,187,17.3,48.1,34.6,0,5.5,5.9,29.6,31.6,6.6,15.1,5.6,1785,57540,82329,4671,599,12.8,4072,87.2,3527,75.5,342,7.3,27,0.6,33,0.7,0,0,0,0,143,3.1,534
McDade H S,McDade ISD,518,538,<25,<25,57.1,<25,,<25,25,Texas,30.2830711,-97.2401656,156 Marlin Street,78650,Bastrop County,McDade,48021,"156 Marlin Street, McDade, Texas, 78650",950102,48021950102,2019,950102,Bastrop County,Texas,284,115,105,64,0,2748,300,107,962,574,215,399,191,40.5,37,22.5,0,10.9,3.9,35,20.9,7.8,14.5,7,1174,88097,101445,3851,1281,33.3,2570,66.7,2447,63.5,38,1,0,0,7,0.2,0,0,0,0,78,2,518
Seymour H S,Seymour ISD,,,<50,<25,2.9,<25,,<25,100,Texas,33.5920552,-99.2458215,500 Stadium Drive,76380,Baylor County,Seymour,48023,"500 Stadium Drive, Seymour, Texas, 76380",950301,48023950301,2019,950301,Baylor County,Texas,140,0,62,78,0,938,24,60,332,195,117,182,28,0,44.3,55.7,0,2.6,6.4,35.4,20.8,12.5,19.4,3,610,50455,65785,1400,227,16.2,1173,83.8,1161,82.9,3,0.2,9,0.6,0,0,0,0,0,0,0,0,0
A C Jones H S,Beeville ISD,478,464,<275,<75,19.8,<25,7.8,<25,21.6,Texas,28.4191996,-97.7541083,1902 North Adams Street,78102,Bee County,Beeville,48025,"1902 North Adams Street, Beeville, Texas, 78102",950300,48025950300,2019,950300,Bee County,Texas,1061,78,302,381,300,3334,184,215,911,1263,410,203,148,7.4,28.5,35.9,28.3,5.5,6.4,27.3,37.9,12.3,6.1,4.4,2022,51328,66665,5837,4097,70.2,1740,29.8,1505,25.8,94,1.6,0,0,85,1.5,0,0,9,0.2,47,0.8,478
Pettus Secondary,Pettus ISD,512,504,<50,<25,23.7,<25,11.1,<25,33.3,Texas,28.5870772,-97.8286368,,N/A,Bee County,N/A,48025,,950100,48025950100,2019,950100,Bee County,Texas,178,53,49,76,0,1100,69,73,371,374,78,83,52,29.8,27.5,42.7,0,6.3,6.6,33.7,34,7.1,7.5,4.7,595,58668,83984,1897,1095,57.7,802,42.3,770,40.6,19,1,0,0,0,0,0,0,0,0,13,0.7,512
Skidmore-Tynan H S,Skidmore-Tynan ISD,575,532,<75,<25,18.8,<25,15.4,<25,46.2,Texas,28.2254294,-97.654811,,N/A,Bee County,N/A,48025,,950600,48025950600,2019,950600,Bee County,Texas,172,14,121,37,0,1842,155,149,475,451,219,131,262,8.1,70.3,21.5,0,8.4,8.1,25.8,24.5,11.9,7.1,14.2,914,36653,62213,2506,1546,61.7,960,38.3,959,38.3,1,0,0,0,0,0,0,0,0,0,0,0,575
Richard Milburn Alter H S (Killeen,Richard Milburn Alter High School,487,455,<75,<25,16.1,<25,,<25,,Texas,31.1212466,-97.733169,,N/A,Bell County,Killeen,48027,,23500,48027023500,2019,23500,Bell County,Texas,195,95,52,48,0,1321,178,128,432,335,117,122,9,48.7,26.7,24.6,0,13.5,9.7,32.7,25.4,8.9,9.2,0.7,751,30313,35932,2097,836,39.9,1261,60.1,662,31.6,507,24.2,0,0,16,0.8,15,0.7,0,0,61,2.9,487
Richard Milburn Academy Odessa,Richard Milburn Alter High School,460,458,<100,<25,4.2,<25,,<25,,Texas,31.8456816,-102.3676431,,N/A,Ector County,Odessa,48135,,3100,48135003100,2019,3100,Ector County,Texas,184,32,66,86,0,2481,316,422,1092,488,75,71,17,17.4,35.9,46.7,0,12.7,17,44,19.7,3,2.9,0.7,1263,39680,51651,3677,2892,78.7,785,21.3,607,16.5,152,4.1,0,0,0,0,0,0,0,0,26,0.7,460
Richard Milburn Academy Lubbock,Richard Milburn Alter High School,440,463,<50,<25,8.3,<25,,<25,,Texas,33.5778239,-101.8552934,,N/A,Lubbock County,Lubbock,48303,,607,48303000607,2019,607,Lubbock County,Texas,566,1,72,459,34,1122,58,59,332,224,81,210,158,0.2,12.7,81.1,6,5.2,5.3,29.6,20,7.2,18.7,14.1,968,26638,36585,2056,757,36.8,1299,63.2,729,35.5,437,21.3,6,0.3,122,5.9,0,0,0,0,5,0.2,440
Richard Milburn Academy Houston (S,Richard Milburn Alter High School,470,410,<75,<25,3.2,<25,,<25,,Texas,29.7600771,-95.3701108,,N/A,Harris County,Houston,48201,,980700,48201980700,2019,980700,Harris County,Texas,226,32,50,84,60,1185,0,16,71,79,54,554,411,14.2,22.1,37.2,26.5,0,1.4,6,6.7,4.6,46.8,34.7,1048,116500,172615,1435,139,9.7,1296,90.3,1070,74.6,112,7.8,0,0,76,5.3,9,0.6,0,0,29,2,470
Richard Milburn Academy Fort Worth,Richard Milburn Alter High School,530,490,<75,<25,3.4,<25,,<25,50,Texas,32.7554883,-97.3307658,,N/A,Tarrant County,Fort Worth,48439,,123302,48439123302,2019,123302,Tarrant County,Texas,1017,421,268,147,181,4333,272,510,1161,861,191,645,693,41.4,26.4,14.5,17.8,6.3,11.8,26.8,19.9,4.4,14.9,16,1566,85000,128936,5621,1210,21.5,4411,78.5,2954,52.6,1074,19.1,0,0,211,3.8,0,0,0,0,172,3.1,530
Richard Milburn Academy Corpus Chr,Richard Milburn Alter High School,438,403,<50,<50,65.1,<25,,<25,,Texas,27.7918932,-97.3953432,,N/A,Nueces County,Corpus Christi,48355,,6400,48355006400,2019,6400,Nueces County,Texas,215,52,75,49,39,2225,216,262,684,463,125,353,122,24.2,34.9,22.8,18.1,9.7,11.8,30.7,20.8,5.6,15.9,5.5,883,26250,65020,2477,1063,42.9,1414,57.1,1093,44.1,274,11.1,8,0.3,10,0.4,0,0,0,0,29,1.2,438
Richard Milburn Academy Amarillo,Richard Milburn Alter High School,,,<75,<25,2,<25,,<25,,Texas,35.2069816,-101.8320065,,N/A,Potter County,Amarillo,48375,,15400,48375015400,2019,15400,Potter County,Texas,230,26,110,94,0,1561,357,385,347,224,184,55,9,11.3,47.8,40.9,0,22.9,24.7,22.2,14.3,11.8,3.5,0.6,1044,31094,43453,2549,2048,80.3,501,19.7,211,8.3,186,7.3,0,0,53,2.1,0,0,0,0,51,2,0
Richard Milburn Academy Pasadena,Richard Milburn Alter High School,440,400,<75,<25,3.8,<25,,<25,,Texas,29.6981333,-95.2008867,,N/A,Harris County,Pasadena,48201,,323000,48201323000,2019,323000,Harris County,Texas,714,42,494,178,0,3731,963,563,1341,385,177,252,50,5.9,69.2,24.9,0,25.8,15.1,35.9,10.3,4.7,6.8,1.3,2017,37250,46156,6973,6346,91,627,9,562,8.1,56,0.8,0,0,2,0,0,0,0,0,7,0.1,440
Richard Milburn Academy Midland So,Richard Milburn Alter High School,,,<25,<25,5.9,<25,,<25,,Texas,31.9995797,-102.0756701,,N/A,Midland County,Midland,48329,,10200,48329010200,2019,10200,Midland County,Texas,330,68,140,122,0,2273,231,439,1014,423,89,38,39,20.6,42.4,37,0,10.2,19.3,44.6,18.6,3.9,1.7,1.7,1022,54715,68538,3736,3064,82,672,18,286,7.7,376,10.1,7,0.2,3,0.1,0,0,0,0,0,0,0
Cove Charter Academy,Priority Charter Schools,480,428,<25,<25,100,<25,,<25,,Texas,31.9685988,-99.9018131,,N/A,Runnels County,N/A,48399,,950100,48399950100,2019,950100,Runnels County,Texas,94,45,31,18,0,925,49,26,298,206,66,252,28,47.9,33,19.1,0,5.3,2.8,32.2,22.3,7.1,27.2,3,518,58182,84798,1210,172,14.2,1038,85.8,978,80.8,32,2.6,0,0,0,0,0,0,0,0,28,2.3,480
Cedar Park Charter Academy,Priority Charter Schools,605,538,<25,<25,100,<25,,<25,75,Texas,30.505198,-97.8202888,,N/A,Williamson County,Cedar Park,48491,,20349,48491020349,2019,20349,Williamson County,Texas,527,53,225,230,19,2404,240,133,387,496,325,553,270,10.1,42.7,43.6,3.6,10,5.5,16.1,20.6,13.5,23,11.2,1208,68077,81442,3805,1121,29.5,2684,70.5,2414,63.4,0,0,0,0,226,5.9,0,0,0,0,44,1.2,605
Gateway Tech H S,Orenda Charter School,545,512,<50,<25,55.3,<25,23.8,<25,28.6,Texas,31.9685988,-99.9018131,,N/A,Runnels County,N/A,48399,,950100,48399950100,2019,950100,Runnels County,Texas,94,45,31,18,0,925,49,26,298,206,66,252,28,47.9,33,19.1,0,5.3,2.8,32.2,22.3,7.1,27.2,3,518,58182,84798,1210,172,14.2,1038,85.8,978,80.8,32,2.6,0,0,0,0,0,0,0,0,28,2.3,545
Gateway College Preparatory School,Orenda Charter School,586,550,<75,<75,98.6,<50,36.8,<50,58.8,Texas,31.9685988,-99.9018131,,N/A,Runnels County,N/A,48399,,950100,48399950100,2019,950100,Runnels County,Texas,94,45,31,18,0,925,49,26,298,206,66,252,28,47.9,33,19.1,0,5.3,2.8,32.2,22.3,7.1,27.2,3,518,58182,84798,1210,172,14.2,1038,85.8,978,80.8,32,2.6,0,0,0,0,0,0,0,0,28,2.3,586
Academy H S,Academy ISD,569,543,103,53,51.5,20,37.7,28,52.8,Texas,30.990356,-97.341399,850 State Highway 95,76554,Bell County,Little River-Academy,48027,"850 State Highway 95, Little River-Academy, Texas, 76554",21400,48027021400,2019,21400,Bell County,Texas,363,141,128,79,15,2738,134,150,869,657,293,411,224,38.8,35.3,21.8,4.1,4.9,5.5,31.7,24,10.7,15,8.2,1462,66000,89520,4413,953,21.6,3460,78.4,3219,72.9,50,1.1,0,0,37,0.8,38,0.9,0,0,116,2.6,569
Belton H S,Belton ISD,554,542,650,293,45.1,86,29.4,147,50.2,Texas,31.0869689,-97.4702095,600 Lake Road,76513,Bell County,Belton,48027,"600 Lake Road, Belton, Texas, 76513",21701,48027021701,2019,21701,Bell County,Texas,262,73,55,108,26,3057,126,61,367,636,335,778,754,27.9,21,41.2,9.9,4.1,2,12,20.8,11,25.4,24.7,1947,82083,143118,5460,956,17.5,4504,82.5,4036,73.9,65,1.2,92,1.7,205,3.8,0,0,0,0,106,1.9,554
Belton New Tech H S At Waskow,Belton ISD,575,534,133,87,65.4,27,31,50,57.5,Texas,31.0580595,-97.4576945,320 North Blair Street,76513,Bell County,Belton,48027,"320 North Blair Street, Belton, Texas, 76513",21601,48027021601,2019,21601,Bell County,Texas,677,23,275,342,37,3660,350,431,1355,916,140,340,128,3.4,40.6,50.5,5.5,9.6,11.8,37,25,3.8,9.3,3.5,2094,38281,51242,6066,2505,41.3,3561,58.7,2730,45,561,9.2,0,0,12,0.2,0,0,21,0.3,237,3.9,575
Holland H S,Holland ISD,522,525,<75,<50,74.1,<25,20,<25,42.5,Texas,30.878908,-97.4104513,101 Rose Street,76534,Bell County,Holland,48027,"101 Rose Street, Holland, Texas, 76534",23402,48027023402,2019,23402,Bell County,Texas,392,35,195,147,15,3574,117,306,1119,985,342,482,223,8.9,49.7,37.5,3.8,3.3,8.6,31.3,27.6,9.6,13.5,6.2,1803,66607,79347,5559,1180,21.2,4379,78.8,4082,73.4,177,3.2,18,0.3,34,0.6,0,0,0,0,68,1.2,522
Killeen H S,Killeen ISD,508,493,477,210,44,33,15.7,61,29,Texas,31.1123062,-97.6986788,500 North 38th Street,76543,Bell County,Killeen,48027,"500 North 38th Street, Killeen, Texas, 76543",22200,48027022200,2019,22200,Bell County,Texas,1004,36,506,415,47,2506,70,183,748,598,115,557,235,3.6,50.4,41.3,4.7,2.8,7.3,29.8,23.9,4.6,22.2,9.4,2111,50652,50803,4336,1437,33.1,2899,66.9,1479,34.1,956,22,0,0,127,2.9,114,2.6,99,2.3,124,2.9,508
C E Ellison H S,Killeen ISD,512,500,502,258,51.4,26,10.1,93,36,Texas,31.0838677,-97.7388664,909 East Elms Road,76542,Bell County,Killeen,48027,"909 East Elms Road, Killeen, Texas, 76542",23002,48027023002,2019,23002,Bell County,Texas,506,108,142,77,179,2332,126,24,692,595,257,541,97,21.3,28.1,15.2,35.4,5.4,1,29.7,25.5,11,23.2,4.2,1349,47349,92638,3338,594,17.8,2744,82.2,1835,55,782,23.4,0,0,0,0,0,0,0,0,127,3.8,512
Killeen ISD Career Center,Killeen ISD,600,610,<25,<25,,<25,33.3,<25,100,Texas,31.0529296,-97.7494274,1320 Stagecoach Road,76543,Bell County,Killeen,48027,"1320 Stagecoach Road, Killeen, Texas, 76543",23302,48027023302,2019,23302,Bell County,Texas,295,106,148,23,18,2191,16,66,528,865,306,251,159,35.9,50.2,7.8,6.1,0.7,3,24.1,39.5,14,11.5,7.3,1242,69231,75105,3217,1009,31.4,2208,68.6,1125,35,789,24.5,32,1,20,0.6,0,0,0,0,242,7.5,600
Pathways Academic Campus,Killeen ISD,462,432,<325,<25,3.3,<25,,<25,,Texas,31.053353,-97.7515357,1322 Stagecoach Road,76542,Bell County,Killeen,48027,"1322 Stagecoach Road, Killeen, Texas, 76542",23302,48027023302,2019,23302,Bell County,Texas,295,106,148,23,18,2191,16,66,528,865,306,251,159,35.9,50.2,7.8,6.1,0.7,3,24.1,39.5,14,11.5,7.3,1242,69231,75105,3217,1009,31.4,2208,68.6,1125,35,789,24.5,32,1,20,0.6,0,0,0,0,242,7.5,462
Harker Heights H S,Killeen ISD,546,528,535,324,60.6,78,24.1,142,43.8,Texas,31.0568127,-97.6521492,1001 Farm to Market 2410,76548,Bell County,Harker Heights,48027,"1001 Farm to Market 2410, Harker Heights, Texas, 76548",21908,48027021908,2019,21908,Bell County,Texas,308,83,60,165,0,4760,118,206,1100,1273,301,1319,443,26.9,19.5,53.6,0,2.5,4.3,23.1,26.7,6.3,27.7,9.3,2422,93203,99255,7082,907,12.8,6175,87.2,4289,60.6,1096,15.5,37,0.5,264,3.7,0,0,0,0,489,6.9,546
Robert M Shoemaker H S,Killeen ISD,501,488,<450,<225,47.1,<25,6.6,<75,23.7,Texas,31.1024082,-97.796721,3302 Clear Creek Road,76549,Bell County,Killeen,48027,"3302 Clear Creek Road, Killeen, Texas, 76549",23111,48027023111,2019,23111,Bell County,Texas,488,67,125,251,45,2512,19,41,451,773,327,661,240,13.7,25.6,51.4,9.2,0.8,1.6,18,30.8,13,26.3,9.6,1628,51063,80535,4266,1417,33.2,2849,66.8,1062,24.9,1515,35.5,0,0,115,2.7,22,0.5,0,0,135,3.2,501
Killeen ISD Early College H S,Killeen ISD,567,540,165,143,86.7,43,30.1,81,56.6,Texas,31.1327875,-97.8069925,76549 Tank Destroyer Boulevard,76544,Coryell County,Fort Cavazos,48099,"76549 Tank Destroyer Boulevard, Fort Cavazos, Texas, 76544",10504,48099010504,2019,10504,Coryell County,Texas,309,16,125,142,26,640,0,0,138,213,119,130,40,5.2,40.5,46,8.4,0,0,21.6,33.3,18.6,20.3,6.3,462,39313,47466,1726,489,28.3,1237,71.7,965,55.9,87,5,45,2.6,68,3.9,4,0.2,0,0,68,3.9,567
Rogers H S,Rogers ISD,517,501,<75,<25,35.8,<25,10.5,<25,42.1,Texas,30.9933203,-97.2005806,,N/A,Bell County,N/A,48027,,23402,48027023402,2019,23402,Bell County,Texas,392,35,195,147,15,3574,117,306,1119,985,342,482,223,8.9,49.7,37.5,3.8,3.3,8.6,31.3,27.6,9.6,13.5,6.2,1803,66607,79347,5559,1180,21.2,4379,78.8,4082,73.4,177,3.2,18,0.3,34,0.6,0,0,0,0,68,1.2,517
Salado H S,Salado ISD,572,564,126,81,64.3,31,38.3,55,67.9,Texas,30.9661726,-97.5385783,1880 Williams Road,76571,Bell County,Salado,48027,"1880 Williams Road, Salado, Texas, 76571",23406,48027023406,2019,23406,Bell County,Texas,113,20,41,29,23,2501,12,0,669,502,243,696,379,17.7,36.3,25.7,20.4,0.5,0,26.7,20.1,9.7,27.8,15.2,1341,92601,117761,3619,507,14,3112,86,3111,86,0,0,0,0,1,0,0,0,0,0,0,0,572
Temple H S,Temple ISD,512,494,447,219,49,35,16,69,31.5,Texas,31.1062637,-97.3535861,415 North 31st Street,76504,Bell County,Temple,48027,"415 North 31st Street, Temple, Texas, 76504",20702,48027020702,2019,20702,Bell County,Texas,119,3,65,51,0,1233,165,209,518,193,60,74,14,2.5,54.6,42.9,0,13.4,17,42,15.7,4.9,6,1.1,602,29779,38371,1717,790,46,927,54,608,35.4,306,17.8,0,0,0,0,0,0,0,0,13,0.8,512
Troy H S,Troy ISD,511,517,118,48,40.7,8,16.7,18,37.5,Texas,31.2112504,-97.3053785,205 North Waco Road,76579,Bell County,Troy,48027,"205 North Waco Road, Troy, Texas, 76579",20101,48027020101,2019,20101,Bell County,Texas,372,20,212,140,0,2266,189,121,720,678,153,307,98,5.4,57,37.6,0,8.3,5.3,31.8,29.9,6.8,13.5,4.3,1289,51723,63581,3453,930,26.9,2523,73.1,2461,71.3,58,1.7,0,0,0,0,0,0,4,0.1,0,0,511
Por Vida Academy Charter H S,Por Vida Academy,,,<100,<25,1.3,<25,,<25,,Texas,31.9685988,-99.9018131,,N/A,Runnels County,N/A,48399,,950100,48399950100,2019,950100,Runnels County,Texas,94,45,31,18,0,925,49,26,298,206,66,252,28,47.9,33,19.1,0,5.3,2.8,32.2,22.3,7.1,27.2,3,518,58182,84798,1210,172,14.2,1038,85.8,978,80.8,32,2.6,0,0,0,0,0,0,0,0,28,2.3,0
Corpus Christi College Prep H S,Por Vida Academy,,,<25,<25,7.1,<25,,<25,,Texas,27.7918932,-97.3953432,,N/A,Nueces County,Corpus Christi,48355,,6400,48355006400,2019,6400,Nueces County,Texas,215,52,75,49,39,2225,216,262,684,463,125,353,122,24.2,34.9,22.8,18.1,9.7,11.8,30.7,20.8,5.6,15.9,5.5,883,26250,65020,2477,1063,42.9,1414,57.1,1093,44.1,274,11.1,8,0.3,10,0.4,0,0,0,0,29,1.2,0
George Gervin Academy,George Gervin Academy,398,390,<25,<25,88.2,<25,,<25,,Texas,31.9685988,-99.9018131,,N/A,Runnels County,N/A,48399,,950100,48399950100,2019,950100,Runnels County,Texas,94,45,31,18,0,925,49,26,298,206,66,252,28,47.9,33,19.1,0,5.3,2.8,32.2,22.3,7.1,27.2,3,518,58182,84798,1210,172,14.2,1038,85.8,978,80.8,32,2.6,0,0,0,0,0,0,0,0,28,2.3,398
Ruth Jones McClendon Middle,George Gervin Academy,,,<25,<25,7.1,<25,,<25,,Texas,31.9685988,-99.9018131,,N/A,Runnels County,N/A,48399,,950100,48399950100,2019,950100,Runnels County,Texas,94,45,31,18,0,925,49,26,298,206,66,252,28,47.9,33,19.1,0,5.3,2.8,32.2,22.3,7.1,27.2,3,518,58182,84798,1210,172,14.2,1038,85.8,978,80.8,32,2.6,0,0,0,0,0,0,0,0,28,2.3,0
Frank L Madla Early College H S,New Frontiers Public Schools Inc,513,504,<50,<50,92.3,<25,11.1,<25,30.6,Texas,31.9685988,-99.9018131,,N/A,Runnels County,N/A,48399,,950100,48399950100,2019,950100,Runnels County,Texas,94,45,31,18,0,925,49,26,298,206,66,252,28,47.9,33,19.1,0,5.3,2.8,32.2,22.3,7.1,27.2,3,518,58182,84798,1210,172,14.2,1038,85.8,978,80.8,32,2.6,0,0,0,0,0,0,0,0,28,2.3,513
Milton B Lee Academy Of Science &,School Of Excellence In Education,495,495,<50,<25,37.9,<25,,<25,18.2,Texas,31.9685988,-99.9018131,,N/A,Runnels County,N/A,48399,,950100,48399950100,2019,950100,Runnels County,Texas,94,45,31,18,0,925,49,26,298,206,66,252,28,47.9,33,19.1,0,5.3,2.8,32.2,22.3,7.1,27.2,3,518,58182,84798,1210,172,14.2,1038,85.8,978,80.8,32,2.6,0,0,0,0,0,0,0,0,28,2.3,495
Southwest Preparatory Southeast Ca,Southwest Preparatory School,,,<25,<25,8.3,<25,,<25,,Texas,31.9685988,-99.9018131,,N/A,Runnels County,N/A,48399,,950100,48399950100,2019,950100,Runnels County,Texas,94,45,31,18,0,925,49,26,298,206,66,252,28,47.9,33,19.1,0,5.3,2.8,32.2,22.3,7.1,27.2,3,518,58182,84798,1210,172,14.2,1038,85.8,978,80.8,32,2.6,0,0,0,0,0,0,0,0,28,2.3,0
Southwest Preparatory School-North,Southwest Preparatory School,473,429,<50,<25,70,<25,,<25,9.5,Texas,31.9685988,-99.9018131,,N/A,Runnels County,N/A,48399,,950100,48399950100,2019,950100,Runnels County,Texas,94,45,31,18,0,925,49,26,298,206,66,252,28,47.9,33,19.1,0,5.3,2.8,32.2,22.3,7.1,27.2,3,518,58182,84798,1210,172,14.2,1038,85.8,978,80.8,32,2.6,0,0,0,0,0,0,0,0,28,2.3,473
New Directions,Southwest Preparatory School,535,520,<25,<25,10.5,<25,,<25,50,Texas,31.9685988,-99.9018131,,N/A,Runnels County,N/A,48399,,950100,48399950100,2019,950100,Runnels County,Texas,94,45,31,18,0,925,49,26,298,206,66,252,28,47.9,33,19.1,0,5.3,2.8,32.2,22.3,7.1,27.2,3,518,58182,84798,1210,172,14.2,1038,85.8,978,80.8,32,2.6,0,0,0,0,0,0,0,0,28,2.3,535
Anne Frank Inspire Academy,Inspire Academies,506,458,<25,<25,45.5,<25,,<25,20,Texas,31.9685988,-99.9018131,,N/A,Runnels County,N/A,48399,,950100,48399950100,2019,950100,Runnels County,Texas,94,45,31,18,0,925,49,26,298,206,66,252,28,47.9,33,19.1,0,5.3,2.8,32.2,22.3,7.1,27.2,3,518,58182,84798,1210,172,14.2,1038,85.8,978,80.8,32,2.6,0,0,0,0,0,0,0,0,28,2.3,506
Heritage Academy Of Del Rio,Heritage Academy,,,<25,<25,5,<25,,<25,,Texas,29.4075202,-100.9175796,709 Kings Way,78840,Val Verde County,Del Rio,48465,"709 Kings Way, Del Rio, Texas, 78840",950203,48465950203,2019,950203,Val Verde County,Texas,48,0,0,27,21,2859,132,0,641,649,188,736,513,0,0,56.3,43.8,4.6,0,22.4,22.7,6.6,25.7,17.9,1531,111713,110181,4226,2166,51.3,2060,48.7,1651,39.1,169,4,0,0,203,4.8,0,0,37,0.9,0,0,0
Jubilee San Antonio,Jubilee Academies,448,440,<50,<50,84.8,<25,,<25,,Texas,29.377635,-98.406741,4434 Roland Road,78222,Bexar County,San Antonio,48029,"4434 Roland Road, San Antonio, Texas, 78222",141300,48029141300,2019,141300,Bexar County,Texas,455,74,117,237,27,4992,271,888,1624,1091,394,586,138,16.3,25.7,52.1,5.9,5.4,17.8,32.5,21.9,7.9,11.7,2.8,2511,41541,61601,7251,4352,60,2899,40,1542,21.3,1106,15.3,0,0,0,0,0,0,68,0.9,183,2.5,448
Jubilee - Lake View University Pre,Jubilee Academies,470,464,<25,<25,100,<25,14.3,<25,14.3,Texas,31.9685988,-99.9018131,,N/A,Runnels County,N/A,48399,,950100,48399950100,2019,950100,Runnels County,Texas,94,45,31,18,0,925,49,26,298,206,66,252,28,47.9,33,19.1,0,5.3,2.8,32.2,22.3,7.1,27.2,3,518,58182,84798,1210,172,14.2,1038,85.8,978,80.8,32,2.6,0,0,0,0,0,0,0,0,28,2.3,470
Jubilee Brownsville,Jubilee Academies,501,479,<75,<50,86,<25,16.3,<25,32.7,Texas,25.9017472,-97.4974838,,N/A,Cameron County,Brownsville,48061,,14001,48061014001,2019,14001,Cameron County,Texas,229,17,143,69,0,1612,645,214,261,90,99,249,54,7.4,62.4,30.1,0,40,13.3,16.2,5.6,6.1,15.4,3.3,1110,10255,22563,2244,2109,94,135,6,38,1.7,12,0.5,0,0,24,1.1,0,0,25,1.1,36,1.6,501
Kipp University Prep H S,Kipp San Antonio,492,470,<25,<175,,<25,7.1,<50,19.5,Texas,29.4080228,-98.5061539,239 Stark Street,78204,Bexar County,San Antonio,48029,"239 Stark Street, San Antonio, Texas, 78204",150100,48029150100,2019,150100,Bexar County,Texas,564,123,223,136,82,3886,397,389,1146,945,288,300,421,21.8,39.5,24.1,14.5,10.2,10,29.5,24.3,7.4,7.7,10.8,1900,42454,65535,5876,5152,87.7,724,12.3,554,9.4,37,0.6,0,0,19,0.3,0,0,95,1.6,19,0.3,492
School Of Science And Technology,School Of Science And Technology,559,560,<100,<100,100,<50,36.1,<75,60.2,Texas,33.4560575,-94.0673006,4001 Summerhill Road,75503,Bowie County,Texarkana,48037,"4001 Summerhill Road, Texarkana, Texas, 75503",10700,48037010700,2019,10700,Bowie County,Texas,363,105,112,146,0,3279,46,193,697,1005,513,552,273,28.9,30.9,40.2,0,1.4,5.9,21.3,30.6,15.6,16.8,8.3,2127,44888,59578,4893,454,9.3,4439,90.7,2413,49.3,1886,38.5,0,0,0,0,0,0,0,0,140,2.9,559
Harmony Science Acad (San Antonio),Harmony Science Acad (San Antonio),524,502,<100,<125,100,<25,21.4,<50,36.9,Texas,29.4313132,-98.6531957,8505 Lakeside Parkway,78245,Bexar County,San Antonio,48029,"8505 Lakeside Parkway, San Antonio, Texas, 78245",171927,48029171927,2019,171927,Bexar County,Texas,847,83,265,362,137,6278,228,417,1897,1616,446,1281,393,9.8,31.3,42.7,16.2,3.6,6.6,30.2,25.7,7.1,20.4,6.3,3697,49729,56711,10191,7151,70.2,3040,29.8,1548,15.2,837,8.2,0,0,312,3.1,0,0,235,2.3,108,1.1,524
Harmony School Of Innovation - Bro,Harmony Science Acad (San Antonio),511,522,<50,<50,100,<25,20.4,<25,34.7,Texas,29.5108965,-98.3471093,8125 Glen Mont Drive,78239,Bexar County,San Antonio,48029,"8125 Glen Mont Drive, San Antonio, Texas, 78239",121507,48029121507,2019,121507,Bexar County,Texas,492,100,118,224,50,3246,257,176,942,771,382,450,268,20.3,24,45.5,10.2,7.9,5.4,29,23.8,11.8,13.9,8.3,1284,65714,76231,4537,2064,45.5,2473,54.5,1261,27.8,787,17.3,36,0.8,95,2.1,22,0.5,0,0,272,6,511
Harmony School Of Excellence - Lar,Harmony Science Acad (San Antonio),480,487,<75,<75,100,<25,11.1,<25,27,Texas,29.4313132,-98.6531957,8505 Lakeside Parkway,78245,Bexar County,San Antonio,48029,"8505 Lakeside Parkway, San Antonio, Texas, 78245",171927,48029171927,2019,171927,Bexar County,Texas,847,83,265,362,137,6278,228,417,1897,1616,446,1281,393,9.8,31.3,42.7,16.2,3.6,6.6,30.2,25.7,7.1,20.4,6.3,3697,49729,56711,10191,7151,70.2,3040,29.8,1548,15.2,837,8.2,0,0,312,3.1,0,0,235,2.3,108,1.1,480
Brooks Academy Of Science And Engi,Brooks Academies Of Texas,488,457,<100,<75,58.2,<25,3.5,<25,12.3,Texas,31.9685988,-99.9018131,,N/A,Runnels County,N/A,48399,,950100,48399950100,2019,950100,Runnels County,Texas,94,45,31,18,0,925,49,26,298,206,66,252,28,47.9,33,19.1,0,5.3,2.8,32.2,22.3,7.1,27.2,3,518,58182,84798,1210,172,14.2,1038,85.8,978,80.8,32,2.6,0,0,0,0,0,0,0,0,28,2.3,488
Brooks Collegiate Academy,Brooks Academies Of Texas,,,<25,<25,,<25,,<25,,Texas,31.9685988,-99.9018131,,N/A,Runnels County,N/A,48399,,950100,48399950100,2019,950100,Runnels County,Texas,94,45,31,18,0,925,49,26,298,206,66,252,28,47.9,33,19.1,0,5.3,2.8,32.2,22.3,7.1,27.2,3,518,58182,84798,1210,172,14.2,1038,85.8,978,80.8,32,2.6,0,0,0,0,0,0,0,0,28,2.3,0
School Of Science And Technology C,School Of Science And Technology D,514,495,<25,<25,,<25,23.5,<25,47.1,Texas,33.4560575,-94.0673006,4001 Summerhill Road,75503,Bowie County,Texarkana,48037,"4001 Summerhill Road, Texarkana, Texas, 75503",10700,48037010700,2019,10700,Bowie County,Texas,363,105,112,146,0,3279,46,193,697,1005,513,552,273,28.9,30.9,40.2,0,1.4,5.9,21.3,30.6,15.6,16.8,8.3,2127,44888,59578,4893,454,9.3,4439,90.7,2413,49.3,1886,38.5,0,0,0,0,0,0,0,0,140,2.9,514
Henry Ford Academy Alameda School,Henry Ford Academy Alameda School,511,443,<50,<25,51.4,<25,5.6,<25,11.1,Texas,31.9685988,-99.9018131,,N/A,Runnels County,N/A,48399,,950100,48399950100,2019,950100,Runnels County,Texas,94,45,31,18,0,925,49,26,298,206,66,252,28,47.9,33,19.1,0,5.3,2.8,32.2,22.3,7.1,27.2,3,518,58182,84798,1210,172,14.2,1038,85.8,978,80.8,32,2.6,0,0,0,0,0,0,0,0,28,2.3,511
Basis San Antonio- Shavano Campus,Basis Texas,671,691,<75,<75,100,<75,91.9,<75,97.3,Texas,29.4251905,-98.4945922,,N/A,Bexar County,San Antonio,48029,,110100,48029110100,2019,110100,Bexar County,Texas,300,28,48,121,103,2703,322,226,460,508,89,524,574,9.3,16,40.3,34.3,11.9,8.4,17,18.8,3.3,19.4,21.2,1840,52659,69432,3153,1797,57,1356,43,1182,37.5,106,3.4,0,0,14,0.4,0,0,10,0.3,44,1.4,671
Basis San Antonio- Pri North Centr,Basis Texas,733,735,<25,<25,,<25,100,<25,100,Texas,29.5271033,-98.4914496,318 East Ramsey Road,78216,Bexar County,San Antonio,48029,"318 East Ramsey Road, San Antonio, Texas, 78216",191304,48029191304,2019,191304,Bexar County,Texas,218,19,73,118,8,1827,117,218,477,610,120,206,79,8.7,33.5,54.1,3.7,6.4,11.9,26.1,33.4,6.6,11.3,4.3,1100,28869,43211,2772,2123,76.6,649,23.4,376,13.6,220,7.9,0,0,27,1,26,0.9,0,0,0,0,733
Great Hearts Monte Vista North,Great Hearts Texas,595,568,<50,<50,88.9,<25,46.9,<25,71.9,Texas,29.4568343,-98.4918039,,78212,Bexar County,San Antonio,48029,,190200,48029190200,2019,190200,Bexar County,Texas,360,15,190,115,40,3735,49,97,1125,715,287,777,685,4.2,52.8,31.9,11.1,1.3,2.6,30.1,19.1,7.7,20.8,18.3,2080,52375,92347,4418,2594,58.7,1824,41.3,1365,30.9,232,5.3,14,0.3,0,0,25,0.6,0,0,188,4.3,595
Great Hearts Irving,Great Hearts Texas,,,<25,<25,,<25,,<25,,Texas,32.8707644,-96.9909955,3350 Story Road West,75038,Dallas County,Irving,48113,"3350 Story Road West, Irving, Texas, 75038",14158,48113014158,2019,14158,Dallas County,Texas,379,17,57,299,6,1663,28,78,488,516,129,295,129,4.5,15,78.9,1.6,1.7,4.7,29.3,31,7.8,17.7,7.8,1138,44327,47529,3008,706,23.5,2302,76.5,319,10.6,1438,47.8,55,1.8,405,13.5,0,0,0,0,85,2.8,0
Alamo Heights H S,Alamo Heights ISD,585,589,375,314,83.7,157,50,220,70.1,Texas,29.4917018,-98.4652223,6900 Broadway,78209,Bexar County,San Antonio,48029,"6900 Broadway, San Antonio, Texas, 78209",120301,48029120301,2019,120301,Bexar County,Texas,506,0,67,218,221,2625,23,0,334,362,110,1039,757,0,13.2,43.1,43.7,0.9,0,12.7,13.8,4.2,39.6,28.8,1485,123212,149111,3836,1001,26.1,2835,73.9,2462,64.2,82,2.1,26,0.7,0,0,0,0,16,0.4,249,6.5,585
Harlandale H S,Harlandale ISD,451,447,<400,<375,96.9,<25,2.7,<50,12.8,Texas,29.3649056,-98.5018265,114 East Gerald Avenue,78214,Bexar County,San Antonio,48029,"114 East Gerald Avenue, San Antonio, Texas, 78214",150900,48029150900,2019,150900,Bexar County,Texas,621,189,335,97,0,5514,809,1023,1967,898,502,277,38,30.4,53.9,15.6,0,14.7,18.6,35.7,16.3,9.1,5,0.7,2386,41771,44886,7987,6611,82.8,1376,17.2,1272,15.9,9,0.1,0,0,0,0,0,0,87,1.1,8,0.1,451
McCollum H S,Harlandale ISD,443,441,<300,<325,100,<25,2.3,<50,11.1,Texas,29.343437,-98.5118715,500 West Formosa Boulevard,78221,Bexar County,San Antonio,48029,"500 West Formosa Boulevard, San Antonio, Texas, 78221",151700,48029151700,2019,151700,Bexar County,Texas,1074,32,311,571,160,4938,876,769,1833,696,301,356,107,3,29,53.2,14.9,17.7,15.6,37.1,14.1,6.1,7.2,2.2,2072,60723,61905,8053,6648,82.6,1405,17.4,1363,16.9,0,0,25,0.3,0,0,0,0,0,0,17,0.2,443
Frank M Tejeda Academy,Harlandale ISD,375,348,<125,<25,20.9,<25,,<25,,Texas,29.3229501,-98.4916111,12121 Southeast Loop 410 Access Road,78221,Bexar County,San Antonio,48029,"12121 Southeast Loop 410 Access Road, San Antonio, Texas, 78221",151700,48029151700,2019,151700,Bexar County,Texas,1074,32,311,571,160,4938,876,769,1833,696,301,356,107,3,29,53.2,14.9,17.7,15.6,37.1,14.1,6.1,7.2,2.2,2072,60723,61905,8053,6648,82.6,1405,17.4,1363,16.9,0,0,25,0.3,0,0,0,0,0,0,17,0.2,375
Harlandale ISD Stem Echs-Alamo Col,Harlandale ISD,514,511,<100,<100,100,<25,15.6,<50,40,Texas,29.3431265,-98.480285,4040 Apollo Street,78214,Bexar County,San Antonio,48029,"4040 Apollo Street, San Antonio, Texas, 78214",192200,48029192200,2019,192200,Bexar County,Texas,512,23,178,181,130,1726,121,87,469,446,106,331,166,4.5,34.8,35.4,25.4,7,5,27.2,25.8,6.1,19.2,9.6,1231,45691,58895,2922,2061,70.5,861,29.5,497,17,220,7.5,0,0,107,3.7,0,0,0,0,37,1.3,514
John F Kennedy H S,Edgewood ISD,422,414,<300,<275,93.2,<25,0.7,<25,3.3,Texas,29.3959678,-98.557341,1922 South General McMullen Drive,78226,Bexar County,San Antonio,48029,"1922 South General McMullen Drive, San Antonio, Texas, 78226",160702,48029160702,2019,160702,Bexar County,Texas,288,71,52,152,13,3549,801,537,960,914,117,165,55,24.7,18.1,52.8,4.5,22.6,15.1,27,25.8,3.3,4.6,1.5,1800,31154,39355,5138,4612,89.8,526,10.2,375,7.3,86,1.7,0,0,5,0.1,0,0,0,0,60,1.2,422
Memorial H S,Edgewood ISD,434,430,<325,<300,90.7,<25,3.9,<50,10.6,Texas,29.4462356,-98.5639114,1227 Memorial Street,78228,Bexar County,San Antonio,48029,"1227 Memorial Street, San Antonio, Texas, 78228",171301,48029171301,2019,171301,Bexar County,Texas,317,96,101,103,17,1584,340,363,556,157,87,72,9,30.3,31.9,32.5,5.4,21.5,22.9,35.1,9.9,5.5,4.5,0.6,804,30556,36505,2682,2506,93.4,176,6.6,150,5.6,8,0.3,0,0,0,0,0,0,0,0,18,0.7,434
Randolph H S,Randolph Field ISD,561,531,104,82,78.8,23,28,45,54.9,Texas,29.528023,-98.2958391,West Perimeter Road,78150,Bexar County,Universal City,48029,"West Perimeter Road, Universal City, Texas, 78150",131700,48029131700,2019,131700,Bexar County,Texas,106,20,50,29,7,561,0,0,30,78,76,150,227,18.9,47.2,27.4,6.6,0,0,5.3,13.9,13.5,26.7,40.5,291,104375,108098,1190,239,20.1,951,79.9,791,66.5,76,6.4,0,0,51,4.3,1,0.1,0,0,32,2.7,561
Brackenridge H S,San Antonio ISD,451,447,385,422,100,19,4.5,53,12.6,Texas,29.4054799,-98.4876216,400 Eagleland Drive,78210,Bexar County,San Antonio,48029,"400 Eagleland Drive, San Antonio, Texas, 78210",192100,48029192100,2019,192100,Bexar County,Texas,57,0,4,0,53,1711,133,67,156,140,102,384,729,0,7,0,93,7.8,3.9,9.1,8.2,6,22.4,42.6,1153,75843,119578,1948,770,39.5,1178,60.5,1081,55.5,20,1,0,0,54,2.8,0,0,0,0,23,1.2,451
Burbank H S,San Antonio ISD,449,446,<300,<300,100,<25,3.9,<50,13,Texas,29.3940388,-98.50982,1002 Edwards,78204,Bexar County,San Antonio,48029,"1002 Edwards, San Antonio, Texas, 78204",150300,48029150300,2019,150300,Bexar County,Texas,498,50,192,167,89,2866,463,366,923,711,198,155,50,10,38.6,33.5,17.9,16.2,12.8,32.2,24.8,6.9,5.4,1.7,1188,43458,52437,4378,3948,90.2,430,9.8,303,6.9,75,1.7,0,0,13,0.3,0,0,39,0.9,0,0,449
Edison H S,San Antonio ISD,435,427,<375,<375,100,<25,1.9,<25,5.7,Texas,29.4722009,-98.5052522,701 Santa Monica Street,78212,Bexar County,San Antonio,48029,"701 Santa Monica Street, San Antonio, Texas, 78212",190603,48029190603,2019,190603,Bexar County,Texas,262,51,81,123,7,2128,237,400,661,457,91,185,97,19.5,30.9,46.9,2.7,11.1,18.8,31.1,21.5,4.3,8.7,4.6,847,46607,57068,2803,2520,89.9,283,10.1,167,6,10,0.4,40,1.4,40,1.4,0,0,16,0.6,10,0.4,435
Fox Technical H S,San Antonio ISD,502,505,<100,<100,100,<25,7.8,<50,30,Texas,29.4321973,-98.4942011,637 North Main Avenue,78205,Bexar County,San Antonio,48029,"637 North Main Avenue, San Antonio, Texas, 78205",110100,48029110100,2019,110100,Bexar County,Texas,300,28,48,121,103,2703,322,226,460,508,89,524,574,9.3,16,40.3,34.3,11.9,8.4,17,18.8,3.3,19.4,21.2,1840,52659,69432,3153,1797,57,1356,43,1182,37.5,106,3.4,0,0,14,0.4,0,0,10,0.3,44,1.4,502
Highlands H S,San Antonio ISD,417,413,<300,<325,100,<25,1.6,<25,5.8,Texas,29.3894462,-98.4421797,3118 Elgin Avenue,78210,Bexar County,San Antonio,48029,"3118 Elgin Avenue, San Antonio, Texas, 78210",141200,48029141200,2019,141200,Bexar County,Texas,436,31,155,175,75,4986,423,741,1720,1307,194,389,212,7.1,35.6,40.1,17.2,8.5,14.9,34.5,26.2,3.9,7.8,4.3,2292,45724,56804,7607,6535,85.9,1072,14.1,937,12.3,101,1.3,0,0,1,0,0,0,0,0,33,0.4,417
Houston H S,San Antonio ISD,427,427,<225,<250,100,<25,2.9,<25,7.8,Texas,29.4253751,-98.3992038,4635 East Houston Street,78220,Bexar County,San Antonio,48029,"4635 East Houston Street, San Antonio, Texas, 78220",130900,48029130900,2019,130900,Bexar County,Texas,468,90,259,119,0,3056,132,348,1142,923,187,259,65,19.2,55.3,25.4,0,4.3,11.4,37.4,30.2,6.1,8.5,2.1,1576,36176,47232,5437,2696,49.6,2741,50.4,291,5.4,2027,37.3,0,0,105,1.9,0,0,16,0.3,302,5.6,427
Jefferson H S,San Antonio ISD,444,435,<375,<400,100,<25,2.5,<50,11.1,Texas,29.4651291,-98.5386161,723 Donaldson Avenue,78201,Bexar County,San Antonio,48029,"723 Donaldson Avenue, San Antonio, Texas, 78201",180102,48029180102,2019,180102,Bexar County,Texas,110,7,50,47,6,1509,48,34,453,272,75,304,323,6.4,45.5,42.7,5.5,3.2,2.3,30,18,5,20.1,21.4,737,87031,104174,1962,1496,76.2,466,23.8,435,22.2,20,1,0,0,11,0.6,0,0,0,0,0,0,444
Lanier H S,San Antonio ISD,415,410,<325,<350,100,<25,0.3,<25,3.5,Texas,29.4221294,-98.5154076,1514 West César E Chávez Boulevard,78207,Bexar County,San Antonio,48029,"1514 West CÃ©sar E ChÃ¡vez Boulevard, San Antonio, Texas, 78207",170200,48029170200,2019,170200,Bexar County,Texas,524,79,223,222,0,3696,1198,894,871,429,211,80,13,15.1,42.6,42.4,0,32.4,24.2,23.6,11.6,5.7,2.2,0.4,1735,22126,33279,5513,5439,98.7,74,1.3,59,1.1,10,0.2,0,0,5,0.1,0,0,0,0,0,0,415
Travis Early College H S,San Antonio ISD,550,536,93,97,100,21,21.6,47,48.5,Texas,29.4475201,-98.4949556,1915 North Main Avenue,78212,Bexar County,San Antonio,48029,"1915 North Main Avenue, San Antonio, Texas, 78212",190200,48029190200,2019,190200,Bexar County,Texas,360,15,190,115,40,3735,49,97,1125,715,287,777,685,4.2,52.8,31.9,11.1,1.3,2.6,30.1,19.1,7.7,20.8,18.3,2080,52375,92347,4418,2594,58.7,1824,41.3,1365,30.9,232,5.3,14,0.3,0,0,25,0.6,0,0,188,4.3,550
Young Women's Leadership Academy,San Antonio ISD,615,585,38,40,100,22,55,31,77.5,Texas,29.4588288,-98.5343991,2123 West Huisache Avenue,78201,Bexar County,San Antonio,48029,"2123 West Huisache Avenue, San Antonio, Texas, 78201",180101,48029180101,2019,180101,Bexar County,Texas,565,26,113,411,15,3900,245,240,1032,1030,347,544,462,4.6,20,72.7,2.7,6.3,6.2,26.5,26.4,8.9,13.9,11.8,1811,53669,67599,5245,3694,70.4,1551,29.6,1507,28.7,0,0,0,0,5,0.1,0,0,0,0,39,0.7,615
Cooper Academy At Navarro,San Antonio ISD,419,422,<125,<50,46.2,<25,2,<25,6.1,Texas,29.4196291,-98.5030487,623 South Pecos La Trinidad,78207,Bexar County,San Antonio,48029,"623 South Pecos La Trinidad, San Antonio, Texas, 78207",110500,48029110500,2019,110500,Bexar County,Texas,191,72,66,49,4,1225,220,352,264,219,50,98,22,37.7,34.6,25.7,2.1,18,28.7,21.6,17.9,4.1,8,1.8,838,10518,21277,2430,2160,88.9,270,11.1,84,3.5,125,5.1,0,0,61,2.5,0,0,0,0,0,0,419
St Philip's College Early College,San Antonio ISD,496,500,<50,<50,100,<25,8.9,<25,28.9,Texas,29.4159911,-98.453515,1801 Martin Luther King Drive,78203,Bexar County,San Antonio,48029,"1801 Martin Luther King Drive, San Antonio, Texas, 78203",130500,48029130500,2019,130500,Bexar County,Texas,349,70,186,78,15,2638,452,267,1063,494,108,119,135,20.1,53.3,22.3,4.3,17.1,10.1,40.3,18.7,4.1,4.5,5.1,1570,25047,35498,4384,2960,67.5,1424,32.5,184,4.2,1144,26.1,17,0.4,0,0,0,0,0,0,79,1.8,496
Advanced Learning Academy,San Antonio ISD,556,525,<25,<25,100,<25,35,<25,40,Texas,29.4359604,-98.4988891,621 West Euclid Avenue,78212,Bexar County,San Antonio,48029,"621 West Euclid Avenue, San Antonio, Texas, 78212",110700,48029110700,2019,110700,Bexar County,Texas,79,7,45,27,0,791,181,111,200,125,31,93,50,8.9,57,34.2,0,22.9,14,25.3,15.8,3.9,11.8,6.3,534,18700,27271,1079,866,80.3,213,19.7,137,12.7,44,4.1,28,2.6,0,0,0,0,0,0,4,0.4,556
Texans Can Academy At Highlands H,San Antonio ISD,368,374,<75,<75,94.7,<25,,<25,,Texas,29.3775559,-98.5374881,1807 Centennial Boulevard,78211,Bexar County,San Antonio,48029,"1807 Centennial Boulevard, San Antonio, Texas, 78211",160901,48029160901,2019,160901,Bexar County,Texas,355,54,111,190,0,2127,399,295,545,568,114,131,75,15.2,31.3,53.5,0,18.8,13.9,25.6,26.7,5.4,6.2,3.5,863,35298,44241,3024,3014,99.7,10,0.3,0,0,10,0.3,0,0,0,0,0,0,0,0,0,0,368
Brewer Academy,San Antonio ISD,450,450,<25,<25,40,<25,,<25,,Texas,29.4040686,-98.4622987,,N/A,Bexar County,San Antonio,48029,,130300,48029130300,2019,130300,Bexar County,Texas,285,64,103,118,0,1689,509,134,390,296,153,172,35,22.5,36.1,41.4,0,30.1,7.9,23.1,17.5,9.1,10.2,2.1,894,33148,42487,2860,2307,80.7,553,19.3,74,2.6,467,16.3,0,0,8,0.3,0,0,0,0,4,0.1,450
Healy-Murphy,San Antonio ISD,435,413,<50,<25,82.8,<25,4.2,<25,4.2,Texas,29.4282002,-98.4803894,618 Live Oak Street,78202,Bexar County,San Antonio,48029,"618 Live Oak Street, San Antonio, Texas, 78202",191900,48029191900,2019,191900,Bexar County,Texas,380,79,82,177,42,3563,307,621,894,490,108,664,479,20.8,21.6,46.6,11.1,8.6,17.4,25.1,13.8,3,18.6,13.4,1841,48972,80653,4925,2888,58.6,2037,41.4,1280,26,667,13.5,0,0,41,0.8,3,0.1,0,0,46,0.9,435
South San Antonio H S,South San Antonio ISD,448,437,584,545,93.3,10,1.8,46,8.4,Texas,29.3631755,-98.5611142,,N/A,Bexar County,N/A,48029,,160901,48029160901,2019,160901,Bexar County,Texas,355,54,111,190,0,2127,399,295,545,568,114,131,75,15.2,31.3,53.5,0,18.8,13.9,25.6,26.7,5.4,6.2,3.5,863,35298,44241,3024,3014,99.7,10,0.3,0,0,10,0.3,0,0,0,0,0,0,0,0,0,0,448
Somerset H S,Somerset ISD,453,453,<275,<250,92.7,<25,2.9,<50,12,Texas,29.229135,-98.6508724,7650 South Loop 1604 West,78069,Bexar County,Somerset,48029,"7650 South Loop 1604 West, Somerset, Texas, 78069",162003,48029162003,2019,162003,Bexar County,Texas,461,84,233,133,11,3238,407,494,1318,528,130,203,158,18.2,50.5,28.9,2.4,12.6,15.3,40.7,16.3,4,6.3,4.9,1194,56900,67593,4821,3763,78.1,1058,21.9,901,18.7,105,2.2,27,0.6,22,0.5,0,0,0,0,3,0.1,453
Shirleen Zacharias Early Clge Lead,Somerset ISD,503,508,<50,<50,100,<25,11.1,<25,33.3,Texas,29.2281804,-98.6537776,7791 East 6th Street,78069,Bexar County,Somerset,48029,"7791 East 6th Street, Somerset, Texas, 78069",162003,48029162003,2019,162003,Bexar County,Texas,461,84,233,133,11,3238,407,494,1318,528,130,203,158,18.2,50.5,28.9,2.4,12.6,15.3,40.7,16.3,4,6.3,4.9,1194,56900,67593,4821,3763,78.1,1058,21.9,901,18.7,105,2.2,27,0.6,22,0.5,0,0,0,0,3,0.1,503
Legacy Of Educational Excellence H,North East ISD,550,533,558,307,55,87,28.3,152,49.5,Texas,29.5075199,-98.5159549,1400 Jackson Keller Road,78213,Bexar County,San Antonio,48029,"1400 Jackson Keller Road, San Antonio, Texas, 78213",191003,48029191003,2019,191003,Bexar County,Texas,1099,108,359,618,14,5449,486,562,1577,1490,384,681,269,9.8,32.7,56.2,1.3,8.9,10.3,28.9,27.3,7,12.5,4.9,3011,37002,43525,9124,7106,77.9,2018,22.1,1453,15.9,404,4.4,0,0,0,0,0,0,12,0.1,149,1.6,550
Macarthur H S,North East ISD,541,524,513,300,58.5,73,24.3,139,46.3,Texas,29.5292913,-98.4403831,2923 MacArthur View,78217,Bexar County,San Antonio,48029,"2923 MacArthur View, San Antonio, Texas, 78217",161000,48029161000,2019,161000,Bexar County,Texas,496,45,144,307,0,2742,515,505,998,454,161,89,20,9.1,29,61.9,0,18.8,18.4,36.4,16.6,5.9,3.2,0.7,1057,31893,42124,4353,3864,88.8,489,11.2,476,10.9,8,0.2,5,0.1,0,0,0,0,0,0,0,0,541
Churchill H S,North East ISD,568,550,673,461,68.5,167,36.2,273,59.2,Texas,29.5505813,-98.5132895,12049 Blanco Road,78216,Bexar County,San Antonio,48029,"12049 Blanco Road, San Antonio, Texas, 78216",191408,48029191408,2019,191408,Bexar County,Texas,274,38,78,106,52,1852,21,114,496,454,316,345,106,13.9,28.5,38.7,19,1.1,6.2,26.8,24.5,17.1,18.6,5.7,1414,43167,49092,2593,1327,51.2,1266,48.8,721,27.8,237,9.1,0,0,199,7.7,0,0,0,0,109,4.2,568
Roosevelt H S,North East ISD,513,502,656,426,64.9,76,17.8,140,32.9,Texas,29.508362,-98.3892326,5110 Walzem Road,78218,Bexar County,San Antonio,48029,"5110 Walzem Road, San Antonio, Texas, 78218",121403,48029121403,2019,121403,Bexar County,Texas,327,47,192,83,5,3634,130,210,973,1126,413,580,202,14.4,58.7,25.4,1.5,3.6,5.8,26.8,31,11.4,16,5.6,1924,42526,52176,5307,2262,42.6,3045,57.4,1020,19.2,1593,30,19,0.4,280,5.3,0,0,0,0,133,2.5,513
Madison H S,North East ISD,520,504,722,433,60,59,13.6,150,34.6,Texas,29.5817677,-98.391354,5005 Stahl Road,78247,Bexar County,San Antonio,48029,"5005 Stahl Road, San Antonio, Texas, 78247",121808,48029121808,2019,121808,Bexar County,Texas,169,42,64,63,0,2355,104,135,553,508,286,415,354,24.9,37.9,37.3,0,4.4,5.7,23.5,21.6,12.1,17.6,15,1092,76336,106008,3196,1159,36.3,2037,63.7,1730,54.1,161,5,0,0,28,0.9,0,0,0,0,118,3.7,520
Reagan H S,North East ISD,593,590,859,746,86.8,369,49.5,538,72.1,Texas,29.6192837,-98.4881625,19000 Ronald Reagan Drive,78258,Bexar County,San Antonio,48029,"19000 Ronald Reagan Drive, San Antonio, Texas, 78258",191818,48029191818,2019,191818,Bexar County,Texas,386,0,77,88,221,3669,65,41,372,723,409,1536,523,0,19.9,22.8,57.3,1.8,1.1,10.1,19.7,11.1,41.9,14.3,2273,80024,102412,4955,2104,42.5,2851,57.5,2225,44.9,169,3.4,6,0.1,352,7.1,0,0,35,0.7,64,1.3,593
Academy Of Creative Ed,North East ISD,583,520,<175,<25,2.6,<25,25,<25,50,Texas,29.5386133,-98.4198935,3736 Perrin Central Boulevard,78217,Bexar County,San Antonio,48029,"3736 Perrin Central Boulevard, San Antonio, Texas, 78217",121204,48029121204,2019,121204,Bexar County,Texas,539,129,211,177,22,5956,234,348,1689,1562,550,932,641,23.9,39.1,32.8,4.1,3.9,5.8,28.4,26.2,9.2,15.6,10.8,4028,38662,47434,7878,2973,37.7,4905,62.3,2661,33.8,1694,21.5,0,0,329,4.2,0,0,11,0.1,210,2.7,583
International School Of America,North East ISD,595,569,<125,<125,93,<75,51.4,<100,70.1,Texas,29.5075658,-98.5159301,1400 Jackson Keller Road,78213,Bexar County,San Antonio,48029,"1400 Jackson Keller Road, San Antonio, Texas, 78213",191003,48029191003,2019,191003,Bexar County,Texas,1099,108,359,618,14,5449,486,562,1577,1490,384,681,269,9.8,32.7,56.2,1.3,8.9,10.3,28.9,27.3,7,12.5,4.9,3011,37002,43525,9124,7106,77.9,2018,22.1,1453,15.9,404,4.4,0,0,0,0,0,0,12,0.1,149,1.6,595
Johnson H S,North East ISD,588,584,773,603,78,292,48.4,434,72,Texas,29.6576624,-98.4344464,23203 Bulverde Road,78259,Bexar County,San Antonio,48029,"23203 Bulverde Road, San Antonio, Texas, 78259",121905,48029121905,2019,121905,Bexar County,Texas,344,47,117,129,51,3835,29,48,586,782,321,1248,821,13.7,34,37.5,14.8,0.8,1.3,15.3,20.4,8.4,32.5,21.4,2167,98391,124890,5354,2118,39.6,3236,60.4,2508,46.8,187,3.5,0,0,318,5.9,0,0,54,1,169,3.2,588
East Central H S,East Central ISD,504,502,716,352,49.2,42,11.9,117,33.2,Texas,29.3536687,-98.2961504,7173 Farm to Market Road 1628,78263,Bexar County,San Antonio,48029,"7173 Farm to Market Road 1628, San Antonio, Texas, 78263",141900,48029141900,2019,141900,Bexar County,Texas,373,0,91,256,26,2760,222,248,1103,526,166,311,184,0,24.4,68.6,7,8,9,40,19.1,6,11.3,6.7,1347,63051,74000,4216,1943,46.1,2273,53.9,2124,50.4,71,1.7,0,0,0,0,29,0.7,0,0,49,1.2,504
Southwest H S,Southwest ISD,449,434,<525,<450,85.1,<25,4.5,<75,12.7,Texas,29.3087035,-98.6731685,11914 Dragon Lane,78252,Bexar County,San Antonio,48029,"11914 Dragon Lane, San Antonio, Texas, 78252",161901,48029161901,2019,161901,Bexar County,Texas,38,2,25,11,0,669,40,84,331,156,30,18,10,5.3,65.8,28.9,0,6,12.6,49.5,23.3,4.5,2.7,1.5,265,48417,68674,1015,809,79.7,206,20.3,204,20.1,0,0,2,0.2,0,0,0,0,0,0,0,0,449
Southwest Legacy H S,Southwest ISD,414,411,<425,<400,92.5,<25,1.8,<25,6.3,Texas,29.2969406,-98.5879182,4495 Verano Parkway,78073,Bexar County,Von Ormy,48029,"4495 Verano Parkway, Von Ormy, Texas, 78073",161200,48029161200,2019,161200,Bexar County,Texas,403,86,195,91,31,1796,320,333,582,280,114,112,55,21.3,48.4,22.6,7.7,17.8,18.5,32.4,15.6,6.3,6.2,3.1,816,45417,55632,3447,3097,89.8,350,10.2,240,7,82,2.4,0,0,8,0.2,0,0,0,0,20,0.6,414
Southwest Academy,Southwest ISD,360,380,<25,<25,,<25,,<25,,Texas,29.3087035,-98.6731685,11914 Dragon Lane,78252,Bexar County,San Antonio,48029,"11914 Dragon Lane, San Antonio, Texas, 78252",161901,48029161901,2019,161901,Bexar County,Texas,38,2,25,11,0,669,40,84,331,156,30,18,10,5.3,65.8,28.9,0,6,12.6,49.5,23.3,4.5,2.7,1.5,265,48417,68674,1015,809,79.7,206,20.3,204,20.1,0,0,2,0.2,0,0,0,0,0,0,0,0,360
Virginia Allred Stacey Jr/Sr H S,Lackland ISD,545,516,<50,<50,100,<25,22.2,<25,44.4,Texas,29.3785467,-98.6138968,2460 Kenly Avenue,78236,Bexar County,Lackland Air Force Base,48029,"2460 Kenly Avenue, Lackland Air Force Base, Texas, 78236",161400,48029161400,2019,161400,Bexar County,Texas,3935,52,2288,1540,55,1534,19,41,192,483,341,343,115,1.3,58.1,39.1,1.4,1.2,2.7,12.5,31.5,22.2,22.4,7.5,355,79420,80836,6305,1454,23.1,4851,76.9,2742,43.5,1146,18.2,5,0.1,391,6.2,134,2.1,0,0,433,6.9,545
Robert G Cole Middle/High School,Ft Sam Houston ISD,538,507,85,70,82.4,16,22.9,23,32.9,Texas,29.4796081,-98.4198267,4001 Winans Road,78234,Bexar County,San Antonio,48029,"4001 Winans Road, San Antonio, Texas, 78234",120100,48029120100,2019,120100,Bexar County,Texas,999,3,497,444,55,2065,7,5,193,667,253,592,348,0.3,49.7,44.4,5.5,0.3,0.2,9.3,32.3,12.3,28.7,16.9,954,80781,94693,4946,1219,24.6,3727,75.4,2729,55.2,554,11.2,23,0.5,173,3.5,0,0,0,0,248,5,538
Holmes H S,Northside ISD,459,453,588,573,97.4,36,6.3,111,19.4,Texas,29.4651584,-98.6161674,6500 Ingram Road,78238,Bexar County,San Antonio,48029,"6500 Ingram Road, San Antonio, Texas, 78238",181602,48029181602,2019,181602,Bexar County,Texas,539,112,282,140,5,4033,371,383,1489,986,292,392,120,20.8,52.3,26,0.9,9.2,9.5,36.9,24.4,7.2,9.7,3,2159,47083,52493,6747,5827,86.4,920,13.6,315,4.7,312,4.6,0,0,147,2.2,53,0.8,8,0.1,85,1.3,459
Jay H S,Northside ISD,464,465,602,602,100,64,10.6,147,24.4,Texas,29.4184088,-98.6407119,7611 Marbach Road,78227,Bexar County,San Antonio,48029,"7611 Marbach Road, San Antonio, Texas, 78227",171700,48029171700,2019,171700,Bexar County,Texas,961,212,393,356,0,5692,304,460,1612,1751,923,428,214,22.1,40.9,37,0,5.3,8.1,28.3,30.8,16.2,7.5,3.8,2693,41004,50138,9391,7591,80.8,1800,19.2,607,6.5,654,7,0,0,81,0.9,0,0,24,0.3,434,4.6,464
Marshall H S,Northside ISD,487,476,520,505,97.1,63,12.5,146,28.9,Texas,29.513627,-98.619869,8000 Lobo Lane,78240,Bexar County,San Antonio,48029,"8000 Lobo Lane, San Antonio, Texas, 78240",181817,48029181817,2019,181817,Bexar County,Texas,168,42,44,73,9,2887,196,306,831,490,309,507,248,25,26.2,43.5,5.4,6.8,10.6,28.8,17,10.7,17.6,8.6,1338,62727,78690,3649,2164,59.3,1485,40.7,808,22.1,279,7.6,6,0.2,293,8,0,0,0,0,99,2.7,487
Holmgreen Center,Northside ISD,,,<25,<25,20,<25,,<25,,Texas,29.5191083,-98.5785557,8580 Ewing Halsell Drive,78229,Bexar County,San Antonio,48029,"8580 Ewing Halsell Drive, San Antonio, Texas, 78229",181402,48029181402,2019,181402,Bexar County,Texas,349,0,100,86,163,2217,73,150,383,340,281,508,482,0,28.7,24.6,46.7,3.3,6.8,17.3,15.3,12.7,22.9,21.7,1408,44789,53102,2914,1373,47.1,1541,52.9,821,28.2,211,7.2,0,0,443,15.2,0,0,0,0,66,2.3,0
Clark H S,Northside ISD,534,523,619,629,100,174,27.7,310,49.3,Texas,29.5654954,-98.5809493,5150 De Zavala Road,78249,Bexar County,San Antonio,48029,"5150 De Zavala Road, San Antonio, Texas, 78249",181813,48029181813,2019,181813,Bexar County,Texas,1278,185,258,517,318,5317,144,142,1152,1422,525,1410,522,14.5,20.2,40.5,24.9,2.7,2.7,21.7,26.7,9.9,26.5,9.8,3430,46295,59266,8770,4418,50.4,4352,49.6,2259,25.8,1217,13.9,0,0,437,5,0,0,0,0,439,5,534
Health Careers H S,Northside ISD,636,614,<200,<225,100,<150,70,<200,88,Texas,29.5206111,-98.578575,4646 Hamilton Wolfe,78229,Bexar County,San Antonio,48029,"4646 Hamilton Wolfe, San Antonio, Texas, 78229",181402,48029181402,2019,181402,Bexar County,Texas,349,0,100,86,163,2217,73,150,383,340,281,508,482,0,28.7,24.6,46.7,3.3,6.8,17.3,15.3,12.7,22.9,21.7,1408,44789,53102,2914,1373,47.1,1541,52.9,821,28.2,211,7.2,0,0,443,15.2,0,0,0,0,66,2.3,636
Taft H S,Northside ISD,506,491,575,580,100,88,15.2,173,29.8,Texas,29.4979709,-98.7214478,11600 Farm to Market Road 471,78253,Bexar County,San Antonio,48029,"11600 Farm to Market Road 471, San Antonio, Texas, 78253",172005,48029172005,2019,172005,Bexar County,Texas,695,27,247,345,76,4904,114,126,822,1339,466,1384,653,3.9,35.5,49.6,10.9,2.3,2.6,16.8,27.3,9.5,28.2,13.3,2600,90321,107019,8176,4736,57.9,3440,42.1,2209,27,587,7.2,0,0,465,5.7,0,0,0,0,179,2.2,506
Alternative H S,Northside ISD,421,413,<25,<25,,<25,,<25,25,Texas,29.4378134,-98.6679874,144 Hunt Lane,78245,Bexar County,San Antonio,48029,"144 Hunt Lane, San Antonio, Texas, 78245",171927,48029171927,2019,171927,Bexar County,Texas,847,83,265,362,137,6278,228,417,1897,1616,446,1281,393,9.8,31.3,42.7,16.2,3.6,6.6,30.2,25.7,7.1,20.4,6.3,3697,49729,56711,10191,7151,70.2,3040,29.8,1548,15.2,837,8.2,0,0,312,3.1,0,0,235,2.3,108,1.1,421
Chavez Excel Academy,Northside ISD,553,523,<275,<25,1.1,<25,33.3,<25,66.7,Texas,29.5547286,-98.5855972,6500 Ingram Road,78238,Bexar County,San Antonio,48029,"6500 Ingram Road, San Antonio, Texas, 78238",181602,48029181602,2019,181602,Bexar County,Texas,539,112,282,140,5,4033,371,383,1489,986,292,392,120,20.8,52.3,26,0.9,9.2,9.5,36.9,24.4,7.2,9.7,3,2159,47083,52493,6747,5827,86.4,920,13.6,315,4.7,312,4.6,0,0,147,2.2,53,0.8,8,0.1,85,1.3,553
O'Connor H S,Northside ISD,526,513,730,732,100,161,22,310,42.3,Texas,29.558993,-98.686538,12221 Leslie Road,78023,Bexar County,Helotes,48029,"12221 Leslie Road, Helotes, Texas, 78023",181724,48029181724,2019,181724,Bexar County,Texas,398,27,95,246,30,3441,273,12,540,791,303,947,575,6.8,23.9,61.8,7.5,7.9,0.3,15.7,23,8.8,27.5,16.7,1463,114620,114639,5312,2917,54.9,2395,45.1,1748,32.9,155,2.9,18,0.3,273,5.1,0,0,0,0,201,3.8,526
Warren H S,Northside ISD,495,487,659,683,100,83,12.2,204,29.9,Texas,29.4636506,-98.6701148,9411 Military Drive West,78251,Bexar County,San Antonio,48029,"9411 Military Drive West, San Antonio, Texas, 78251",171928,48029171928,2019,171928,Bexar County,Texas,433,11,133,289,0,4283,180,45,697,1201,450,926,784,2.5,30.7,66.7,0,4.2,1.1,16.3,28,10.5,21.6,18.3,1765,96470,113533,5787,3578,61.8,2209,38.2,1518,26.2,410,7.1,0,0,80,1.4,0,0,0,0,201,3.5,495
Stevens H S,Northside ISD,473,461,<675,<625,92.3,<50,6.9,<125,18.9,Texas,29.4401849,-98.6846566,600 North Ellison Drive,78251,Bexar County,San Antonio,48029,"600 North Ellison Drive, San Antonio, Texas, 78251",171918,48029171918,2019,171918,Bexar County,Texas,843,26,231,527,59,4793,253,240,946,1262,257,1418,417,3.1,27.4,62.5,7,5.3,5,19.7,26.3,5.4,29.6,8.7,2535,67564,78593,7442,5179,69.6,2263,30.4,1166,15.7,407,5.5,0,0,87,1.2,0,0,0,0,603,8.1,473
Brandeis H S,Northside ISD,539,535,621,644,100,193,30,313,48.6,Texas,29.5654611,-98.6463289,13011 Kyle Seale Parkway,78249,Bexar County,San Antonio,48029,"13011 Kyle Seale Parkway, San Antonio, Texas, 78249",181824,48029181824,2019,181824,Bexar County,Texas,665,63,0,509,93,1953,103,9,291,388,163,700,299,9.5,0,76.5,14,5.3,0.5,14.9,19.9,8.3,35.8,15.3,1156,82292,99661,3191,1525,47.8,1666,52.2,1047,32.8,211,6.6,0,0,381,11.9,0,0,0,0,27,0.8,539
Brennan H S,Northside ISD,496,483,564,576,100,54,9.4,163,28.3,Texas,29.457912,-98.7246428,2400 Cottonwood Way,78253,Bexar County,San Antonio,48029,"2400 Cottonwood Way, San Antonio, Texas, 78253",172009,48029172009,2019,172009,Bexar County,Texas,796,193,197,326,80,3397,128,97,314,1021,425,781,631,24.2,24.7,41,10.1,3.8,2.9,9.2,30.1,12.5,23,18.6,1775,112943,128831,6252,2821,45.1,3431,54.9,2112,33.8,937,15,0,0,198,3.2,0,0,0,0,184,2.9,496
Harlan H S,Northside ISD,500,486,412,394,95.6,52,13.2,116,29.4,Texas,29.5154961,-98.7800205,14350 Culebra Road,78253,Bexar County,San Antonio,48029,"14350 Culebra Road, San Antonio, Texas, 78253",182105,48029182105,2019,182105,Bexar County,Texas,545,44,112,318,71,3777,37,55,609,829,299,1312,636,8.1,20.6,58.3,13,1,1.5,16.1,21.9,7.9,34.7,16.8,1688,108083,121137,6296,2999,47.6,3297,52.4,2156,34.2,595,9.5,0,0,330,5.2,0,0,8,0.1,208,3.3,500
DAEP At Holmgreen,Northside ISD,,,<25,<25,,<25,,<25,,Texas,29.5496408,-98.704075,,N/A,Bexar County,N/A,48029,,181724,48029181724,2019,181724,Bexar County,Texas,398,27,95,246,30,3441,273,12,540,791,303,947,575,6.8,23.9,61.8,7.5,7.9,0.3,15.7,23,8.8,27.5,16.7,1463,114620,114639,5312,2917,54.9,2395,45.1,1748,32.9,155,2.9,18,0.3,273,5.1,0,0,0,0,201,3.8,0
Judson H S,Judson ISD,475,458,672,641,95.4,45,7,111,17.3,Texas,29.5092004,-98.3033015,9142 Farm-To-Market Road 78,78109,Bexar County,Converse,48029,"9142 Farm-To-Market Road 78, Converse, Texas, 78109",131608,48029131608,2019,131608,Bexar County,Texas,562,102,94,333,33,3937,103,114,891,1257,338,735,499,18.1,16.7,59.3,5.9,2.6,2.9,22.6,31.9,8.6,18.7,12.7,2193,53313,65205,6822,2493,36.5,4329,63.5,1848,27.1,1944,28.5,13,0.2,158,2.3,0,0,0,0,366,5.4,475
Judson Learning Acad,Judson ISD,479,459,<125,<50,28.4,<25,6.9,<25,20.7,Texas,29.539781,-98.3197946,,N/A,Bexar County,N/A,48029,,121604,48029121604,2019,121604,Bexar County,Texas,471,117,171,55,128,6218,69,139,2214,1453,682,1219,442,24.8,36.3,11.7,27.2,1.1,2.2,35.6,23.4,11,19.6,7.1,3207,60723,75659,8912,3355,37.6,5557,62.4,3796,42.6,1038,11.6,0,0,136,1.5,37,0.4,0,0,550,6.2,479
Karen Wagner H S,Judson ISD,451,439,428,451,100,19,4.2,47,10.4,Texas,29.4566356,-98.3569301,3000 North Foster Road,78244,Bexar County,San Antonio,48029,"3000 North Foster Road, San Antonio, Texas, 78244",131615,48029131615,2019,131615,Bexar County,Texas,928,10,485,233,200,6342,346,324,1410,1841,808,1139,474,1.1,52.3,25.1,21.6,5.5,5.1,22.2,29,12.7,18,7.5,2844,63497,103786,9235,4489,48.6,4746,51.4,1842,19.9,2705,29.3,0,0,54,0.6,0,0,32,0.3,113,1.2,451
Judson Early College Academy,Judson ISD,596,563,<125,<125,100,<75,43.1,<100,74.8,Texas,29.5481794,-98.3259147,8230 Palisades Drive,78148,Bexar County,Universal City,48029,"8230 Palisades Drive, Universal City, Texas, 78148",121605,48029121605,2019,121605,Bexar County,Texas,126,13,36,21,56,1427,64,62,522,382,230,105,62,10.3,28.6,16.7,44.4,4.5,4.3,36.6,26.8,16.1,7.4,4.3,733,61467,69024,2041,590,28.9,1451,71.1,1139,55.8,122,6,0,0,87,4.3,8,0.4,0,0,95,4.7,596
Veterans Memorial H S,Judson ISD,474,460,<200,<225,100,<25,5.4,<50,17,Texas,29.6093028,-98.3374102,7618 East Evans Road,78266,Bexar County,San Antonio,48029,"7618 East Evans Road, San Antonio, Texas, 78266",121910,48029121910,2019,121909,Bexar County,Texas,288,45,44,136,63,4682,58,40,652,1117,601,1192,1022,15.6,15.3,47.2,21.9,1.2,0.9,13.9,23.9,12.8,25.5,21.8,2367,90799,116063,6859,2086,30.4,4773,69.6,3638,53,430,6.3,0,0,578,8.4,0,0,0,0,127,1.9,474
Southside H S,Southside ISD,446,441,<350,<325,90.7,<25,3.3,<50,11.6,Texas,29.2368683,-98.4730514,1460 Martinez Losoya Road,78221,Bexar County,San Antonio,48029,"1460 Martinez Losoya Road, San Antonio, Texas, 78221",152201,48029152201,2019,152201,Bexar County,Texas,661,112,213,287,49,4360,506,983,1329,912,143,418,69,16.9,32.2,43.4,7.4,11.6,22.5,30.5,20.9,3.3,9.6,1.6,2014,27344,51506,7107,6031,84.9,1076,15.1,939,13.2,0,0,0,0,29,0.4,0,0,6,0.1,102,1.4,446
Lyndon B Johnson H S,Johnson City ISD,544,535,<75,<50,68.3,<25,25.6,<25,44.2,Texas,30.3500511,-98.3964938,,N/A,Blanco County,N/A,48031,,950102,48031950102,2019,950102,Blanco County,Texas,65,14,28,6,17,1824,24,41,470,454,176,382,277,21.5,43.1,9.2,26.2,1.3,2.2,25.8,24.9,9.6,20.9,15.2,854,91522,108417,2081,91,4.4,1990,95.6,1868,89.8,0,0,0,0,75,3.6,47,2.3,0,0,0,0,544
Blanco H S,Blanco ISD,544,552,78,29,37.2,10,34.5,14,48.3,Texas,30.0993537,-98.4316558,1215 4th Street,78606,Blanco County,Blanco,48031,"1215 4th Street, Blanco, Texas, 78606",950202,48031950202,2019,950202,Blanco County,Texas,207,55,67,27,58,2393,46,122,667,636,110,650,162,26.6,32.4,13,28,1.9,5.1,27.9,26.6,4.6,27.2,6.8,1245,79205,90177,3364,691,20.5,2673,79.5,2332,69.3,1,0,15,0.4,7,0.2,0,0,0,0,318,9.5,544
Borden County School,Borden County ISD,640,565,<25,<25,10.5,<25,100,<25,100,Texas,32.7759551,-101.4491418,240 West Kincaid Avenue,79738,Borden County,Gail,48033,"240 West Kincaid Avenue, Gail, Texas, 79738",950100,48033950100,2019,950100,Borden County,Texas,6,6,0,0,0,434,17,12,91,95,23,157,39,100,0,0,0,3.9,2.8,21,21.9,5.3,36.2,9,223,83281,98135,653,85,13,568,87,548,83.9,0,0,0,0,0,0,0,0,0,0,20,3.1,640
Clifton H S,Clifton ISD,544,517,<75,<25,26.2,<25,18.8,<25,43.8,Texas,31.788728,-97.5904105,1101 North Avenue Q,76634,Bosque County,Clifton,48035,"1101 North Avenue Q, Clifton, Texas, 76634",950500,48035950500,2019,950500,Bosque County,Texas,181,78,34,69,0,2341,175,178,732,572,204,399,81,43.1,18.8,38.1,0,7.5,7.6,31.3,24.4,8.7,17,3.5,1178,57882,63813,3011,837,27.8,2174,72.2,2021,67.1,111,3.7,0,0,42,1.4,0,0,0,0,0,0,544
Meridian H S,Meridian ISD,486,494,<50,<25,26.7,<25,,<25,25,Texas,31.941702,-97.6619902,500 Yellow Jacket Dr.,76665,Bosque County,Meridian,48035,"500 Yellow Jacket Dr., Meridian, Texas, 76665",950100,48035950100,2019,950100,Bosque County,Texas,280,54,156,66,4,2721,153,268,1298,534,129,225,114,19.3,55.7,23.6,1.4,5.6,9.8,47.7,19.6,4.7,8.3,4.2,1572,51774,64639,4009,1161,29,2848,71,2730,68.1,13,0.3,32,0.8,0,0,0,0,0,0,73,1.8,486
Morgan School,Morgan ISD,403,465,<25,<25,91.7,<25,,<25,9.1,Texas,32.0194594,-97.6065535,1306 Charles,76671,Bosque County,Morgan,48035,"1306 Charles, Morgan, Texas, 76671",950100,48035950100,2019,950100,Bosque County,Texas,280,54,156,66,4,2721,153,268,1298,534,129,225,114,19.3,55.7,23.6,1.4,5.6,9.8,47.7,19.6,4.7,8.3,4.2,1572,51774,64639,4009,1161,29,2848,71,2730,68.1,13,0.3,32,0.8,0,0,0,0,0,0,73,1.8,403
Valley Mills H S,Valley Mills ISD,526,515,<50,<25,51.3,<25,15,<25,45,Texas,31.6584986,-97.5030669,,N/A,Bosque County,N/A,48035,,950700,48035950700,2019,950700,Bosque County,Texas,294,80,95,113,6,1526,34,161,457,484,125,187,78,27.2,32.3,38.4,2,2.2,10.6,29.9,31.7,8.2,12.3,5.1,905,51875,60185,2364,586,24.8,1778,75.2,1639,69.3,47,2,0,0,0,0,0,0,1,0,91,3.8,526
Walnut Springs School,Walnut Springs ISD,530,496,<25,<25,80,<25,12.5,<25,50,Texas,32.0537198,-97.7529188,184 Avenue A,76690,Bosque County,Walnut Springs,48035,"184 Avenue A, Walnut Springs, Texas, 76690",950100,48035950100,2019,950100,Bosque County,Texas,280,54,156,66,4,2721,153,268,1298,534,129,225,114,19.3,55.7,23.6,1.4,5.6,9.8,47.7,19.6,4.7,8.3,4.2,1572,51774,64639,4009,1161,29,2848,71,2730,68.1,13,0.3,32,0.8,0,0,0,0,0,0,73,1.8,530
Iredell School,Iredell ISD,493,510,<25,<25,85.7,<25,,<25,66.7,Texas,31.9970466,-97.8939317,,N/A,Bosque County,N/A,48035,,950100,48035950100,2019,950100,Bosque County,Texas,280,54,156,66,4,2721,153,268,1298,534,129,225,114,19.3,55.7,23.6,1.4,5.6,9.8,47.7,19.6,4.7,8.3,4.2,1572,51774,64639,4009,1161,29,2848,71,2730,68.1,13,0.3,32,0.8,0,0,0,0,0,0,73,1.8,493
Kopperl School,Kopperl ISD,471,467,<25,<25,100,<25,,<25,28.6,Texas,32.0728717,-97.5010841,175 County Road 1240,76652,Bosque County,Kopperl,48035,"175 County Road 1240, Kopperl, Texas, 76652",950100,48035950100,2019,950100,Bosque County,Texas,280,54,156,66,4,2721,153,268,1298,534,129,225,114,19.3,55.7,23.6,1.4,5.6,9.8,47.7,19.6,4.7,8.3,4.2,1572,51774,64639,4009,1161,29,2848,71,2730,68.1,13,0.3,32,0.8,0,0,0,0,0,0,73,1.8,471
Cranfills Gap School,Cranfills Gap ISD,448,459,<25,<25,88.9,<25,12.5,<25,12.5,Texas,31.7701465,-97.8249537,505 2nd Street,76637,Bosque County,Cranfills Gap,48035,"505 2nd Street, Cranfills Gap, Texas, 76637",950400,48035950400,2019,950400,Bosque County,Texas,287,42,119,106,20,2781,87,155,659,759,378,476,267,14.6,41.5,36.9,7,3.1,5.6,23.7,27.3,13.6,17.1,9.6,1526,67100,84905,3824,350,9.2,3474,90.8,3260,85.3,55,1.4,0,0,36,0.9,0,0,0,0,123,3.2,448
Dekalb H S,Dekalb ISD,,,<50,<25,2.3,<25,100,<25,100,Texas,33.5079853,-94.622461,152 Southwest Maple Street,75559,Bowie County,De Kalb,48037,"152 Southwest Maple Street, De Kalb, Texas, 75559",11601,48037011601,2019,11601,Bowie County,Texas,137,2,38,90,7,1841,67,184,694,494,112,163,127,1.5,27.7,65.7,5.1,3.6,10,37.7,26.8,6.1,8.9,6.9,1118,46131,61346,2683,266,9.9,2417,90.1,2015,75.1,308,11.5,43,1.6,17,0.6,0,0,0,0,34,1.3,0
New Boston H S,New Boston ISD,633,563,<100,<25,3.7,<25,66.7,<25,100,Texas,33.4566434,-94.4199773,1 West Lion Drive,75570,Bowie County,New Boston,48037,"1 West Lion Drive, New Boston, Texas, 75570",11501,48037011501,2019,11501,Bowie County,Texas,810,215,475,115,5,6002,353,1018,2183,1153,350,719,226,26.5,58.6,14.2,0.6,5.9,17,36.4,19.2,5.8,12,3.8,1740,71505,79672,7931,1371,17.3,6560,82.7,5142,64.8,1221,15.4,20,0.3,44,0.6,0,0,8,0.1,125,1.6,633
Redwater H S,Redwater ISD,,,<100,<25,1,<25,,<25,,Texas,33.3666394,-94.248827,120 Red River Road North,75501,Bowie County,Texarkana,48037,"120 Red River Road North, Texarkana, Texas, 75501",11101,48037011101,2019,11101,Bowie County,Texas,133,8,24,101,0,2883,179,243,1003,953,206,92,207,6,18,75.9,0,6.2,8.4,34.8,33.1,7.1,3.2,7.2,1572,50860,51391,4223,357,8.5,3866,91.5,2669,63.2,1136,26.9,0,0,0,0,0,0,0,0,61,1.4,0
Texas H S,Texarkana ISD,604,595,<350,<75,14.9,<50,53.8,<50,78.8,Texas,33.4560575,-94.0673006,4001 Summerhill Road,75503,Bowie County,Texarkana,48037,"4001 Summerhill Road, Texarkana, Texas, 75503",10700,48037010700,2019,10700,Bowie County,Texas,363,105,112,146,0,3279,46,193,697,1005,513,552,273,28.9,30.9,40.2,0,1.4,5.9,21.3,30.6,15.6,16.8,8.3,2127,44888,59578,4893,454,9.3,4439,90.7,2413,49.3,1886,38.5,0,0,0,0,0,0,0,0,140,2.9,604
Liberty-Eylau H S,Liberty-Eylau ISD,452,466,<175,<25,11.9,<25,,<25,10.5,Texas,33.3915239,-94.0893521,2905 Leopard Drive,75501,Bowie County,Texarkana,48037,"2905 Leopard Drive, Texarkana, Texas, 75501",10400,48037010400,2019,10400,Bowie County,Texas,427,68,254,105,0,2498,139,250,1018,674,172,189,56,15.9,59.5,24.6,0,5.6,10,40.8,27,6.9,7.6,2.2,1588,24545,41094,3745,193,5.2,3552,94.8,1408,37.6,1932,51.6,0,0,27,0.7,0,0,56,1.5,129,3.4,452
James Bowie H S,Simms ISD,580,570,<50,<25,8.6,<25,33.3,<25,66.7,Texas,33.3779352,-94.5418141,,N/A,Bowie County,N/A,48037,,11700,48037011700,2019,11700,Bowie County,Texas,98,0,45,53,0,1461,100,55,539,318,75,262,112,0,45.9,54.1,0,6.8,3.8,36.9,21.8,5.1,17.9,7.7,864,49444,56369,1904,99,5.2,1805,94.8,1732,91,0,0,64,3.4,0,0,0,0,0,0,9,0.5,580
Pleasant Grove H S,Pleasant Grove ISD,540,564,171,14,8.2,5,35.7,8,57.1,Texas,33.4660987,-94.1096572,5406 McKnight Road,75503,Bowie County,Texarkana,48037,"5406 McKnight Road, Texarkana, Texas, 75503",10906,48037010906,2019,10906,Bowie County,Texas,602,56,119,343,84,3491,63,74,732,925,231,932,534,9.3,19.8,57,14,1.8,2.1,21,26.5,6.6,26.7,15.3,2129,77552,88856,5043,50,1,4993,99,4263,84.5,548,10.9,11,0.2,120,2.4,0,0,0,0,51,1,540
Alvin H S,Alvin ISD,523,507,596,239,40.1,42,17.6,90,37.7,Texas,29.418152,-95.2515507,802 South Johnson Street,77511,Brazoria County,Alvin,48039,"802 South Johnson Street, Alvin, Texas, 77511",661400,48039661400,2019,661400,Brazoria County,Texas,407,19,116,219,53,4068,50,576,1320,967,386,580,189,4.7,28.5,53.8,13,1.2,14.2,32.4,23.8,9.5,14.3,4.6,2405,57408,79034,6132,1841,30,4291,70,4122,67.2,40,0.7,0,0,106,1.7,0,0,23,0.4,0,0,523
Manvel H S,Alvin ISD,521,511,<400,<250,58.6,<50,17.7,<100,38.8,Texas,29.4715335,-95.3654,19601 Highway 6,77578,Brazoria County,Manvel,48039,"19601 Highway 6, Manvel, Texas, 77578",660708,48039660708,2019,660708,Brazoria County,Texas,506,13,240,211,42,5013,20,364,894,1664,281,1291,499,2.6,47.4,41.7,8.3,0.4,7.3,17.8,33.2,5.6,25.8,10,2586,95172,110825,7694,1853,24.1,5841,75.9,4568,59.4,1003,13,0,0,270,3.5,0,0,0,0,0,0,521
Assets,Alvin ISD,442,418,<50,<50,79.5,<25,3.2,<25,6.5,Texas,29.4498692,-95.3520876,,N/A,Brazoria County,N/A,48039,,661502,48039661502,2019,661502,Brazoria County,Texas,453,18,136,299,0,3556,141,220,1187,1112,307,476,113,4,30,66,0,4,6.2,33.4,31.3,8.6,13.4,3.2,1708,67692,89787,5345,1734,32.4,3611,67.6,3306,61.9,132,2.5,18,0.3,14,0.3,0,0,0,0,141,2.6,442
Shadow Creek H S,Alvin ISD,539,531,551,413,75,119,28.8,185,44.8,Texas,29.5502798,-95.4037447,11850 Broadway Street,77584,Brazoria County,Pearland,48039,"11850 Broadway Street, Pearland, Texas, 77584",660612,48039660612,2019,660612,Brazoria County,Texas,86,36,0,0,50,2500,0,0,184,364,233,1035,684,41.9,0,0,58.1,0,0,7.4,14.6,9.3,41.4,27.4,1314,140395,173990,3753,467,12.4,3286,87.6,1070,28.5,583,15.5,0,0,1633,43.5,0,0,0,0,0,0,539
Angleton H S,Angleton ISD,521,514,459,174,37.9,27,15.5,72,41.4,Texas,29.2015422,-95.4135763,1 Campus Drive,77515,Brazoria County,Angleton,48039,"1 Campus Drive, Angleton, Texas, 77515",662200,48039662200,2019,662200,Brazoria County,Texas,783,333,326,96,28,5712,123,555,1817,1109,748,962,398,42.5,41.6,12.3,3.6,2.2,9.7,31.8,19.4,13.1,16.8,7,2967,69962,107054,8174,1473,18,6701,82,5440,66.6,619,7.6,28,0.3,403,4.9,0,0,0,0,211,2.6,521
Danbury H S,Danbury ISD,542,543,<75,<50,41.5,<25,25.9,<25,59.3,Texas,29.2241275,-95.3422104,5611 1st Street,77534,Brazoria County,Danbury,48039,"5611 1st Street, Danbury, Texas, 77534",662400,48039662400,2019,662400,Brazoria County,Texas,528,25,263,225,15,3407,95,341,1014,1054,402,413,88,4.7,49.8,42.6,2.8,2.8,10,29.8,30.9,11.8,12.1,2.6,2035,68811,80558,5343,1632,30.5,3711,69.5,3234,60.5,337,6.3,0,0,25,0.5,0,0,23,0.4,92,1.7,542
Brazosport H S,Brazosport ISD,475,469,<250,<75,26.4,<25,9.7,<25,22.6,Texas,28.9589998,-95.3718424,1800 West 2nd Street,77541,Brazoria County,Freeport,48039,"1800 West 2nd Street, Freeport, Texas, 77541",664300,48039664300,2019,664300,Brazoria County,Texas,582,112,394,76,0,3262,469,350,1220,827,178,171,47,19.2,67.7,13.1,0,14.4,10.7,37.4,25.4,5.5,5.2,1.4,2066,45634,51930,6037,3960,65.6,2077,34.4,532,8.8,1188,19.7,211,3.5,7,0.1,0,0,0,0,139,2.3,475
Brazoswood H S,Brazosport ISD,568,542,<525,<175,30.3,<75,35.3,<100,48.7,Texas,29.026378,-95.415316,302 Brazoswood Drive,77531,Brazoria County,Clute,48039,"302 Brazoswood Drive, Clute, Texas, 77531",663800,48039663800,2019,663800,Brazoria County,Texas,804,91,406,307,0,4132,189,515,1038,927,260,958,245,11.3,50.5,38.2,0,4.6,12.5,25.1,22.4,6.3,23.2,5.9,2543,64931,91081,6388,3817,59.8,2571,40.2,2032,31.8,423,6.6,0,0,0,0,12,0.2,0,0,104,1.6,568
Brazos Success Academy,Brazosport ISD,408,371,<125,<25,7.4,<25,,<25,,Texas,29.0442981,-95.442717,308 Winding Way,77566,Brazoria County,Lake Jackson,48039,"308 Winding Way, Lake Jackson, Texas, 77566",663300,48039663300,2019,663300,Brazoria County,Texas,207,15,51,127,14,1471,93,130,462,418,185,148,35,7.2,24.6,61.4,6.8,6.3,8.8,31.4,28.4,12.6,10.1,2.4,778,60588,67617,2326,776,33.4,1550,66.6,1170,50.3,163,7,0,0,128,5.5,0,0,40,1.7,49,2.1,408
Sweeny H S,Sweeny ISD,514,487,<150,<125,80,<25,15.4,<50,35.6,Texas,29.0484786,-95.7042171,600 East Ashley-Wilson Road,77480,Brazoria County,Sweeny,48039,"600 East Ashley-Wilson Road, Sweeny, Texas, 77480",662800,48039662800,2019,662800,Brazoria County,Texas,311,41,141,129,0,4458,296,350,1599,1337,293,515,68,13.2,45.3,41.5,0,6.6,7.9,35.9,30,6.6,11.6,1.5,2438,66909,76818,6278,1554,24.8,4724,75.2,3840,61.2,764,12.2,0,0,0,0,0,0,107,1.7,13,0.2,514
Columbia H S,Columbia-Brazoria ISD,535,514,182,53,29.1,7,13.2,19,35.8,Texas,29.137732,-95.6509274,520 South 16th Street,77486,Brazoria County,West Columbia,48039,"520 South 16th Street, West Columbia, Texas, 77486",662600,48039662600,2019,662600,Brazoria County,Texas,357,99,160,98,0,2158,45,295,538,676,300,221,83,27.7,44.8,27.5,0,2.1,13.7,24.9,31.3,13.9,10.2,3.8,1306,54833,69695,3100,663,21.4,2437,78.6,1963,63.3,409,13.2,0,0,0,0,0,0,0,0,65,2.1,535
Pearland H S,Pearland ISD,565,553,682,458,67.2,166,36.2,277,60.5,Texas,29.5389855,-95.2711516,3775 South Main Street,77581,Brazoria County,Pearland,48039,"3775 South Main Street, Pearland, Texas, 77581",660302,48039660302,2019,660302,Brazoria County,Texas,70,0,8,62,0,2335,135,0,411,434,379,622,354,0,11.4,88.6,0,5.8,0,17.6,18.6,16.2,26.6,15.2,1056,110769,140748,3643,544,14.9,3099,85.1,2390,65.6,109,3,9,0.2,194,5.3,0,0,0,0,397,10.9,565
Glenda Dawson H S,Pearland ISD,596,603,611,509,83.3,271,53.2,357,70.1,Texas,29.5733481,-95.3534869,2050 Cullen Boulevard,77581,Brazoria County,Pearland,48039,"2050 Cullen Boulevard, Pearland, Texas, 77581",660609,48039660609,2019,660609,Brazoria County,Texas,522,198,35,224,65,3211,86,429,573,637,402,592,492,37.9,6.7,42.9,12.5,2.7,13.4,17.8,19.8,12.5,18.4,15.3,1672,108448,114507,5067,794,15.7,4273,84.3,1680,33.2,1494,29.5,0,0,658,13,0,0,0,0,441,8.7,596
Robert Turner College And Career H,Pearland ISD,560,546,271,178,65.7,59,33.1,100,56.2,Texas,29.5680437,-95.2893433,,N/A,Brazoria County,N/A,48039,,660503,48039660503,2019,660503,Brazoria County,Texas,234,0,4,230,0,1790,119,25,439,630,160,286,131,0,1.7,98.3,0,6.6,1.4,24.5,35.2,8.9,16,7.3,1107,60625,79780,2889,1132,39.2,1757,60.8,1669,57.8,0,0,88,3,0,0,0,0,0,0,0,0,560
A & M Cons H S,College Station ISD,589,598,<425,<275,62.9,<150,52.7,<200,73.6,Texas,30.6186625,-96.3364251,400 Bizzell Street,77840,Brazos County,College Station,48041,"400 Bizzell Street, College Station, Texas, 77840",2100,48041002100,2019,2100,Brazos County,Texas,10510,0,2116,7845,549,537,0,4,4,125,23,157,224,0,20.1,74.6,5.2,0,0.7,0.7,23.3,4.3,29.2,41.7,844,20863,32434,11153,2483,22.3,8670,77.7,6278,56.3,293,2.6,0,0,1681,15.1,0,0,0,0,418,3.7,589
College Station H S,College Station ISD,576,576,455,316,69.5,145,45.9,205,64.9,Texas,30.5579882,-96.2871783,4002 Victoria Avenue,77845,Brazos County,College Station,48041,"4002 Victoria Avenue, College Station, Texas, 77845",2006,48041002006,2019,2005,Brazos County,Texas,303,9,41,129,124,998,21,7,109,243,45,250,323,3,13.5,42.6,40.9,2.1,0.7,10.9,24.3,4.5,25.1,32.4,643,83125,97712,1512,95,6.3,1417,93.7,1036,68.5,49,3.2,24,1.6,308,20.4,0,0,0,0,0,0,576
College View H S,College Station ISD,529,510,<25,<25,60.9,<25,14.3,<25,28.6,Texas,30.6124653,-96.3299368,1300 George Bush Drive,77840,Brazos County,College Station,48041,"1300 George Bush Drive, College Station, Texas, 77840",1608,48041001608,2019,1607,Brazos County,Texas,1255,35,188,773,259,891,0,128,179,102,27,211,244,2.8,15,61.6,20.6,0,14.4,20.1,11.4,3,23.7,27.4,856,-666666666,74741,2289,255,11.1,2034,88.9,1787,78.1,168,7.3,5,0.2,31,1.4,0,0,29,1.3,14,0.6,529
Travis B Bryan H S,Bryan ISD,526,521,478,258,54,71,27.5,120,46.5,Texas,30.6553094,-96.3349787,3450 Campus Drive,77802,Brazos County,Bryan,48041,"3450 Campus Drive, Bryan, Texas, 77802",1902,48041001902,2019,1902,Brazos County,Texas,368,1,122,182,63,1813,33,33,243,476,215,611,202,0.3,33.2,49.5,17.1,1.8,1.8,13.4,26.3,11.9,33.7,11.1,1198,55676,61188,3104,679,21.9,2425,78.1,1935,62.3,466,15,0,0,14,0.5,0,0,0,0,10,0.3,526
James Earl Rudder H S,Bryan ISD,474,459,345,151,43.8,12,7.9,25,16.6,Texas,30.6881237,-96.342434,3251 Austins Colony Parkway,77808,Brazos County,Bryan,48041,"3251 Austins Colony Parkway, Bryan, Texas, 77808",107,48041000107,2019,107,Brazos County,Texas,193,8,112,55,18,2819,0,0,428,606,86,1212,487,4.1,58,28.5,9.3,0,0,15.2,21.5,3.1,43,17.3,1549,100804,98149,4023,792,19.7,3231,80.3,2786,69.3,261,6.5,0,0,34,0.8,0,0,0,0,150,3.7,474
Bryan Collegiate H S,Bryan ISD,552,544,83,102,100,27,26.5,57,55.9,Texas,30.6526229,-96.3478227,1901 East Villa Maria Road,77802,Brazos County,Bryan,48041,"1901 East Villa Maria Road, Bryan, Texas, 77802",1101,48041001101,2019,1101,Brazos County,Texas,387,61,89,237,0,1904,14,101,276,414,177,437,485,15.8,23,61.2,0,0.7,5.3,14.5,21.7,9.3,23,25.5,1303,52648,65896,2932,466,15.9,2466,84.1,1994,68,316,10.8,0,0,67,2.3,0,0,7,0.2,82,2.8,552
Big Bend H S,Terlingua CSD,485,455,<25,<25,85.7,<25,33.3,<25,33.3,Texas,29.3151869,-103.5384535,2281 Road Runner Circle,79852,Brewster County,Terlingua,48043,"2281 Road Runner Circle, Terlingua, Texas, 79852",950500,48043950500,2019,950500,Brewster County,Texas,212,27,17,99,69,2179,150,95,343,566,142,610,273,12.7,8,46.7,32.5,6.9,4.4,15.7,26,6.5,28,12.5,1324,46325,59346,2702,929,34.4,1773,65.6,1575,58.3,8,0.3,44,1.6,111,4.1,0,0,29,1.1,6,0.2,485
Alpine H S,Alpine ISD,500,493,73,61,83.6,7,11.5,21,34.4,Texas,30.3719701,-103.6657327,300 East Hendryx Avenue,79830,Brewster County,Alpine,48043,"300 East Hendryx Avenue, Alpine, Texas, 79830",950300,48043950300,2019,950300,Brewster County,Texas,232,30,32,103,67,3367,116,448,657,480,100,1004,562,12.9,13.8,44.4,28.9,3.4,13.3,19.5,14.3,3,29.8,16.7,2148,41702,65417,4688,1993,42.5,2695,57.5,2525,53.9,11,0.2,0,0,159,3.4,0,0,0,0,0,0,500
Marathon Independent School Dist,Marathon ISD,475,413,<25,<25,100,<25,,<25,,Texas,29.9822388,-102.8975098,,N/A,Brewster County,N/A,48043,,950500,48043950500,2019,950500,Brewster County,Texas,212,27,17,99,69,2179,150,95,343,566,142,610,273,12.7,8,46.7,32.5,6.9,4.4,15.7,26,6.5,28,12.5,1324,46325,59346,2702,929,34.4,1773,65.6,1575,58.3,8,0.3,44,1.6,111,4.1,0,0,29,1.1,6,0.2,475
Silverton School,Silverton ISD,,,<25,<25,5.6,<25,,<25,,Texas,34.4705123,-101.3083877,700 Loretta Street,79257,Briscoe County,Silverton,48045,"700 Loretta Street, Silverton, Texas, 79257",950200,48045950200,2019,950200,Briscoe County,Texas,106,0,62,23,21,1017,55,93,365,256,70,134,44,0,58.5,21.7,19.8,5.4,9.1,35.9,25.2,6.9,13.2,4.3,588,37875,53553,1348,487,36.1,861,63.9,791,58.7,16,1.2,0,0,0,0,6,0.4,0,0,48,3.6,0
Falfurrias H S,Brooks County ISD,476,458,<100,<25,17.6,<25,6.3,<25,12.5,Texas,27.2323297,-98.1525463,100 Jersey Drive,78355,Brooks County,Falfurrias,48047,"100 Jersey Drive, Falfurrias, Texas, 78355",950200,48047950200,2019,950200,Brooks County,Texas,524,0,212,312,0,2835,232,446,873,622,93,434,135,0,40.5,59.5,0,8.2,15.7,30.8,21.9,3.3,15.3,4.8,1590,27988,40296,4563,4176,91.5,387,8.5,372,8.2,0,0,0,0,0,0,0,0,0,0,15,0.3,476
Bangs H S,Bangs ISD,534,501,85,37,43.5,7,18.9,17,45.9,Texas,31.7180585,-99.129405,305 North 3rd Street,76823,Brown County,Bangs,48049,"305 North 3rd Street, Bangs, Texas, 76823",950500,48049950500,2019,950500,Brown County,Texas,195,12,103,53,27,2084,99,152,808,486,149,320,70,6.2,52.8,27.2,13.8,4.8,7.3,38.8,23.3,7.1,15.4,3.4,1078,51538,68428,2805,508,18.1,2297,81.9,2078,74.1,115,4.1,6,0.2,10,0.4,0,0,0,0,88,3.1,534
Brownwood H S,Brownwood ISD,517,501,<250,<175,69.3,<25,12.8,<50,30.8,Texas,31.691798,-98.9789967,2100 Slayden Street,76801,Brown County,Brownwood,48049,"2100 Slayden Street, Brownwood, Texas, 76801",950900,48049950900,2019,950900,Brown County,Texas,570,0,348,197,25,2949,146,190,950,785,130,547,201,0,61.1,34.6,4.4,5,6.4,32.2,26.6,4.4,18.5,6.8,1752,50500,65932,4410,806,18.3,3604,81.7,3363,76.3,126,2.9,0,0,115,2.6,0,0,0,0,0,0,517
Brownwood Accelerated H S,Brownwood ISD,527,453,<25,<25,21.4,<25,,<25,33.3,Texas,31.6911412,-98.9727927,2707 Southside Drive,76801,Brown County,Brownwood,48049,"2707 Southside Drive, Brownwood, Texas, 76801",950900,48049950900,2019,950900,Brown County,Texas,570,0,348,197,25,2949,146,190,950,785,130,547,201,0,61.1,34.6,4.4,5,6.4,32.2,26.6,4.4,18.5,6.8,1752,50500,65932,4410,806,18.3,3604,81.7,3363,76.3,126,2.9,0,0,115,2.6,0,0,0,0,0,0,527
Blanket School,Blanket ISD,615,540,<25,<25,20,<25,50,<25,50,Texas,31.8249486,-98.7921836,,N/A,Brown County,N/A,48049,,950300,48049950300,2019,950300,Brown County,Texas,186,31,53,95,7,2301,80,153,920,468,237,356,87,16.7,28.5,51.1,3.8,3.5,6.6,40,20.3,10.3,15.5,3.8,1243,57656,72479,2997,278,9.3,2719,90.7,2700,90.1,4,0.1,0,0,0,0,0,0,0,0,15,0.5,615
May H S,May ISD,528,510,<50,<25,38.7,<25,8.3,<25,41.7,Texas,31.979203,-98.9234617,3400 East County Road 411,76857,Brown County,May,48049,"3400 East County Road 411, May, Texas, 76857",950100,48049950100,2019,950100,Brown County,Texas,81,6,51,0,24,1646,5,155,550,477,53,290,116,7.4,63,0,29.6,0.3,9.4,33.4,29,3.2,17.6,7,977,42835,79827,2011,71,3.5,1940,96.5,1936,96.3,0,0,0,0,0,0,0,0,0,0,4,0.2,528
Zephyr School,Zephyr ISD,517,520,<25,<25,45.5,<25,10,<25,30,Texas,31.7134262,-98.770147,,N/A,Brown County,N/A,48049,,950300,48049950300,2019,950300,Brown County,Texas,186,31,53,95,7,2301,80,153,920,468,237,356,87,16.7,28.5,51.1,3.8,3.5,6.6,40,20.3,10.3,15.5,3.8,1243,57656,72479,2997,278,9.3,2719,90.7,2700,90.1,4,0.1,0,0,0,0,0,0,0,0,15,0.5,517
Brookesmith School,Brookesmith ISD,,,<25,<25,14.3,<25,,<25,100,Texas,31.5476073,-99.1197258,13400 Farm to Market 586,76827,Brown County,Brookesmith,48049,"13400 Farm to Market 586, Brookesmith, Texas, 76827",951300,48049951300,2019,951300,Brown County,Texas,302,76,51,111,64,2608,59,306,801,699,223,328,192,25.2,16.9,36.8,21.2,2.3,11.7,30.7,26.8,8.6,12.6,7.4,1312,53750,74194,3591,924,25.7,2667,74.3,2393,66.6,149,4.1,21,0.6,0,0,0,0,0,0,104,2.9,0
Early H S,Early ISD,584,569,94,52,55.3,23,44.2,38,73.1,Texas,31.7458323,-98.9322495,115 Sudderth Drive,76802,Brown County,Early,48049,"115 Sudderth Drive, Early, Texas, 76802",951200,48049951200,2019,951200,Brown County,Texas,356,19,147,180,10,2964,106,140,836,751,312,649,170,5.3,41.3,50.6,2.8,3.6,4.7,28.2,25.3,10.5,21.9,5.7,1679,63047,77807,4688,862,18.4,3826,81.6,3504,74.7,104,2.2,0,0,60,1.3,0,0,0,0,158,3.4,584
Caldwell H S,Caldwell ISD,540,529,130,89,68.5,25,28.1,42,47.2,Texas,30.5484321,-96.6741275,550 County Road 307,77836,Burleson County,Caldwell,48051,"550 County Road 307, Caldwell, Texas, 77836",970300,48051970300,2019,970300,Burleson County,Texas,438,190,155,93,0,3034,281,286,961,692,140,511,163,43.4,35.4,21.2,0,9.3,9.4,31.7,22.8,4.6,16.8,5.4,1802,48711,66685,4655,1367,29.4,3288,70.6,2489,53.5,681,14.6,41,0.9,0,0,0,0,12,0.3,65,1.4,540
Somerville H S,Somerville ISD,498,463,<50,<25,50,<25,,<25,15.4,Texas,30.341991,-96.5349372,570 8th Street,77879,Burleson County,Somerville,48051,"570 8th Street, Somerville, Texas, 77879",970502,48051970502,2019,970502,Burleson County,Texas,222,22,88,112,0,1543,94,194,689,225,108,128,105,9.9,39.6,50.5,0,6.1,12.6,44.7,14.6,7,8.3,6.8,765,56510,69486,2545,681,26.8,1864,73.2,1058,41.6,763,30,0,0,0,0,0,0,0,0,43,1.7,498
Snook Secondary,Snook ISD,449,438,<50,<25,57.5,<25,8.7,<25,21.7,Texas,30.4906375,-96.4680126,10110 Farm to Market Road 2155,77879,Burleson County,Somerville,48051,"10110 Farm to Market Road 2155, Somerville, Texas, 77879",970400,48051970400,2019,970400,Burleson County,Texas,283,21,78,49,135,2793,112,357,764,685,102,567,206,7.4,27.6,17.3,47.7,4,12.8,27.4,24.5,3.7,20.3,7.4,1475,74178,88246,3864,826,21.4,3038,78.6,2614,67.7,364,9.4,0,0,0,0,0,0,0,0,60,1.6,449
Burnet H S,Burnet CISD,528,510,<200,<125,54.8,<25,15.7,<50,34.3,Texas,30.7778339,-98.2251921,1000 The Green Mile,78611,Burnet County,Burnet,48053,"1000 The Green Mile, Burnet, Texas, 78611",960302,48053960302,2019,960302,Burnet County,Texas,595,248,96,251,0,2816,35,124,1044,967,48,412,186,41.7,16.1,42.2,0,1.2,4.4,37.1,34.3,1.7,14.6,6.6,1562,59375,76351,4552,1134,24.9,3418,75.1,3092,67.9,72,1.6,24,0.5,0,0,0,0,0,0,230,5.1,528
Quest H S,Burnet CISD,420,485,<50,<25,4.3,<25,,<25,,Texas,30.7647814,-98.2259533,702 North Wood Street,78611,Burnet County,Burnet,48053,"702 North Wood Street, Burnet, Texas, 78611",960302,48053960302,2019,960302,Burnet County,Texas,595,248,96,251,0,2816,35,124,1044,967,48,412,186,41.7,16.1,42.2,0,1.2,4.4,37.1,34.3,1.7,14.6,6.6,1562,59375,76351,4552,1134,24.9,3418,75.1,3092,67.9,72,1.6,24,0.5,0,0,0,0,0,0,230,5.1,420
Marble Falls H S,Marble Falls ISD,537,528,<250,<125,45.9,<50,25,<75,47.3,Texas,30.5012717,-98.1775638,,N/A,Burnet County,N/A,48053,,960803,48053960803,2019,960803,Burnet County,Texas,50,0,0,50,0,1391,0,89,448,386,89,324,55,0,0,100,0,0,6.4,32.2,27.7,6.4,23.3,4,652,79917,90330,1696,112,6.6,1584,93.4,1493,88,0,0,0,0,27,1.6,0,0,0,0,64,3.8,537
Falls Career H S,Marble Falls ISD,,,<25,<25,4.3,<25,,<25,,Texas,30.5937644,-98.2748234,1800 Colt Circle,78654,Burnet County,Marble Falls,48053,"1800 Colt Circle, Marble Falls, Texas, 78654",960702,48053960702,2019,960702,Burnet County,Texas,152,0,54,63,35,2909,37,97,688,936,290,438,423,0,35.5,41.4,23,1.3,3.3,23.7,32.2,10,15.1,14.5,1536,49722,70754,4050,681,16.8,3369,83.2,3280,81,4,0.1,0,0,85,2.1,0,0,0,0,0,0,0
Lockhart H S,Lockhart ISD,453,449,373,337,90.3,17,5,44,13.1,Texas,29.8729641,-97.6777029,906 Center Street,78644,Caldwell County,Lockhart,48055,"906 Center Street, Lockhart, Texas, 78644",960300,48055960300,2019,960300,Caldwell County,Texas,287,4,126,107,50,3129,69,248,1016,856,145,530,265,1.4,43.9,37.3,17.4,2.2,7.9,32.5,27.4,4.6,16.9,8.5,1780,60000,79246,4519,1948,43.1,2571,56.9,2097,46.4,104,2.3,0,0,359,7.9,0,0,0,0,11,0.2,453
Luling H S,Luling ISD,470,457,<100,<50,34.4,<25,,<25,6.3,Texas,29.6777017,-97.654048,218 East Travis Street,78648,Caldwell County,Luling,48055,"218 East Travis Street, Luling, Texas, 78648",960702,48055960702,2019,960702,Caldwell County,Texas,136,0,69,30,37,2095,268,216,502,589,167,256,97,0,50.7,22.1,27.2,12.8,10.3,24,28.1,8,12.2,4.6,1219,50363,50371,2780,1151,41.4,1629,58.6,1455,52.3,143,5.1,0,0,29,1,2,0.1,0,0,0,0,470
Prairie Lea School,Prairie Lea ISD,537,552,<25,<25,100,<25,27.3,<25,45.5,Texas,29.7324613,-97.7527755,6910 San Marcos Highway,78661,Caldwell County,Prairie Lea,48055,"6910 San Marcos Highway, Prairie Lea, Texas, 78661",960502,48055960502,2019,960502,Caldwell County,Texas,210,74,50,86,0,1932,123,130,964,441,99,141,34,35.2,23.8,41,0,6.4,6.7,49.9,22.8,5.1,7.3,1.8,1021,61899,91762,2799,1800,64.3,999,35.7,932,33.3,58,2.1,0,0,0,0,0,0,0,0,9,0.3,537
Calhoun H S,Calhoun County ISD,497,498,214,61,28.5,9,14.8,18,29.5,Texas,28.6214099,-96.643,201 Sandcrab Boulevard,77979,Calhoun County,Port Lavaca,48057,"201 Sandcrab Boulevard, Port Lavaca, Texas, 77979",402,48057000402,2019,401,Calhoun County,Texas,129,0,92,37,0,2332,92,225,520,640,247,413,195,0,71.3,28.7,0,3.9,9.6,22.3,27.4,10.6,17.7,8.4,1272,70856,72733,3178,1549,48.7,1629,51.3,1409,44.3,0,0,0,0,109,3.4,0,0,0,0,111,3.5,497
Cross Plains H S,Cross Plains ISD,500,525,<25,<25,8.3,<25,,<25,,Texas,32.1543183,-99.2342196,,N/A,Callahan County,N/A,48059,,30200,48059030200,2019,30200,Callahan County,Texas,307,18,83,183,23,3468,137,313,1081,964,218,607,148,5.9,27,59.6,7.5,4,9,31.2,27.8,6.3,17.5,4.3,1832,46750,61856,4762,655,13.8,4107,86.2,4005,84.1,2,0,2,0,0,0,0,0,0,0,98,2.1,500
Clyde H S,Clyde CISD,544,527,<100,<25,12,<25,20,<25,60,Texas,32.4150738,-99.5269489,500 North Hays Road,79510,Callahan County,Clyde,48059,"500 North Hays Road, Clyde, Texas, 79510",30102,48059030102,2019,30102,Callahan County,Texas,216,0,137,63,16,3261,78,198,1279,640,215,592,259,0,63.4,29.2,7.4,2.4,6.1,39.2,19.6,6.6,18.2,7.9,1663,57224,70857,4184,282,6.7,3902,93.3,3748,89.6,20,0.5,0,0,0,0,0,0,0,0,134,3.2,544
Eula H S,Eula ISD,594,540,<50,<25,14.7,<25,40,<25,60,Texas,32.3767119,-99.5673479,,N/A,Callahan County,N/A,48059,,30102,48059030102,2019,30102,Callahan County,Texas,216,0,137,63,16,3261,78,198,1279,640,215,592,259,0,63.4,29.2,7.4,2.4,6.1,39.2,19.6,6.6,18.2,7.9,1663,57224,70857,4184,282,6.7,3902,93.3,3748,89.6,20,0.5,0,0,0,0,0,0,0,0,134,3.2,594
Texas Academy Of Mathematics And S,University Of Texas Rio Grande Val,579,565,<25,<50,,<25,51.6,<25,77.4,Texas,31.9685988,-99.9018131,,N/A,Runnels County,N/A,48399,,950100,48399950100,2019,950100,Runnels County,Texas,94,45,31,18,0,925,49,26,298,206,66,252,28,47.9,33,19.1,0,5.3,2.8,32.2,22.3,7.1,27.2,3,518,58182,84798,1210,172,14.2,1038,85.8,978,80.8,32,2.6,0,0,0,0,0,0,0,0,28,2.3,579
Hanna Early College H S,Brownsville ISD,484,468,626,442,70.6,27,6.1,83,18.8,Texas,25.910952,-97.5055622,733 Palm Boulevard,78520,Cameron County,Brownsville,48061,"733 Palm Boulevard, Brownsville, Texas, 78520",13700,48061013700,2019,13700,Cameron County,Texas,586,118,200,268,0,2032,482,480,658,174,74,164,0,20.1,34.1,45.7,0,23.7,23.6,32.4,8.6,3.6,8.1,0,1081,21125,30615,3842,3759,97.8,83,2.2,83,2.2,0,0,0,0,0,0,0,0,0,0,0,0,484
Porter Early College H S,Brownsville ISD,458,451,<475,<300,61.1,<25,3.2,<50,11.9,Texas,25.9127896,-97.4723071,3500 International Boulevard,78521,Cameron County,Brownsville,48061,"3500 International Boulevard, Brownsville, Texas, 78521",13901,48061013901,2019,13901,Cameron County,Texas,278,99,149,21,9,1430,462,201,431,206,85,38,7,35.6,53.6,7.6,3.2,32.3,14.1,30.1,14.4,5.9,2.7,0.5,595,27697,32785,2545,2481,97.5,64,2.5,64,2.5,0,0,0,0,0,0,0,0,0,0,0,0,458
Pace Early College H S,Brownsville ISD,458,453,547,400,73.1,14,3.5,40,10,Texas,25.910952,-97.5055622,733 Palm Boulevard,78520,Cameron County,Brownsville,48061,"733 Palm Boulevard, Brownsville, Texas, 78520",13700,48061013700,2019,13700,Cameron County,Texas,586,118,200,268,0,2032,482,480,658,174,74,164,0,20.1,34.1,45.7,0,23.7,23.6,32.4,8.6,3.6,8.1,0,1081,21125,30615,3842,3759,97.8,83,2.2,83,2.2,0,0,0,0,0,0,0,0,0,0,0,0,458
Rivera Early College H S,Brownsville ISD,468,457,558,416,74.6,21,5,62,14.9,Texas,25.9395138,-97.4159457,6955 Ruben M Torres Boulevard,78521,Cameron County,Brownsville,48061,"6955 Ruben M Torres Boulevard, Brownsville, Texas, 78521",12700,48061012700,2019,12700,Cameron County,Texas,835,181,402,236,16,2679,707,460,718,399,133,139,123,21.7,48.1,28.3,1.9,26.4,17.2,26.8,14.9,5,5.2,4.6,1215,35250,46584,5072,4913,96.9,159,3.1,159,3.1,0,0,0,0,0,0,0,0,0,0,0,0,468
Brownsville Learning Acad H S,Brownsville ISD,453,407,<100,<25,3.9,<25,,<25,,Texas,25.9611514,-97.449852,4350 Morrison Road,78526,Cameron County,Brownsville,48061,"4350 Morrison Road, Brownsville, Texas, 78526",12608,48061012608,2019,12608,Cameron County,Texas,518,50,133,316,19,3272,407,292,511,527,406,1015,114,9.7,25.7,61,3.7,12.4,8.9,15.6,16.1,12.4,31,3.5,1820,57963,52871,5187,4610,88.9,577,11.1,475,9.2,8,0.2,0,0,94,1.8,0,0,0,0,0,0,453
Lopez Early College H S,Brownsville ISD,466,455,<425,<325,78.4,<25,2.8,<50,12.8,Texas,25.8824211,-97.42242,3205 South Dakota Avenue,78521,Cameron County,Brownsville,48061,"3205 South Dakota Avenue, Brownsville, Texas, 78521",14101,48061014101,2019,14101,Cameron County,Texas,700,222,166,312,0,2577,362,799,578,495,97,246,0,31.7,23.7,44.6,0,14,31,22.4,19.2,3.8,9.5,0,1104,38086,45302,5009,4390,87.6,619,12.4,619,12.4,0,0,0,0,0,0,0,0,0,0,0,0,466
