School Name,District Name,Reading/Writing Score,Math Scores,Tests Taken,# Students SAT ELA Participation,state_name_x,latitude,longitude,address,zip_code,county_name_x,city_name,county_code,Street Address,Tract,unique_id,year,tract_number,county_name_y,state_name_y,Population 18 to 24 years (estimate),"18-24, less than high school graduate (estimate)","18-24, high school graduate or eq. (estimate)","18-24, some college or associate's degree (estimate)","18-24, bachelor's degree or higher",Population 25 years and over (estimate),"25 and over, less than 9th grade (estimate)","25 and over, 9th to 12th grade, no diploma (estimate)","25 and over, high school graduate or eq. (estimate)","25 and over, some college, no degree (estimate)","25 and over, associate's degree (estimate)","25 and over, bachelor's degree (estimate)","25 and over, graduate or professional degree (estimate)","18-24, less than high school graduate (percentage)","18-24, high school graduate or eq. (percentage)","18-24, some college or associate's degree (percentage)","18-24, bachelor's degree or higher (percentage)","25 and over, less than 9th grade (percentage)","25 and over, 9th to 12th grade, no diploma (percentage)","25 and over, high school graduate or eq. (percentage)","25 and over, some college, no degree (percentage)","25 and over, associate's degree (percentage)","25 and over, bachelor's degree (percentage)","25 and over, graduate or professional degree (percentage)",Total number of households,Median household income (dollars),Mean household income (dollars),Total population,Hispanic or Latino (estimate),Hispanic or Latino (percentage),Not Hispanic or Latino (estimate),Not Hispanic or Latino (percentage),White alone (estimate),White alone (percentage),Black or African American alone (estimate),Black or African American alone (percentage),American Indian and Alaska Native alone (estimate),American Indian and Alaska Native alone (percentage),Asian alone (estimate),Asian alone (percentage),Native Hawaiian and Other Pacific Islander alone (estimate),Native Hawaiian and Other Pacific Islander alone (percentage),Some other race alone (estimate),Some other race alone (percentage),Two or more races alone (estimate),Two or more races alone (percentage),RW Scores
Seymour High School,Payson CUSD 1,473.4,455.2,29,29,Illinois,39.8167882,-91.2503442,420 West Brainard Street,62360,Adams County,Payson,17001,"420 West Brainard Street, Payson, Illinois, 62360",10302,17001010302,2023,10302,Adams County,Illinois,168,11,119,38,0,2018,19,56,785,547,191,305,115,6.5,70.8,22.6,0,0.9,2.8,38.9,27.1,9.5,15.1,5.7,1147,73036,87843,2838,101,3.6,2737,96.4,2670,94.1,0,0,0,0,27,1,0,0,0,0,40,1.4,473.4
Liberty High School,Liberty CUSD 2,470.2,481.5,54,54,Illinois,39.8861857,-91.1070694,505 North Park Street,62347,Adams County,Liberty,17001,"505 North Park Street, Liberty, Illinois, 62347",10301,17001010301,2023,10301,Adams County,Illinois,85,24,23,23,15,1854,35,64,635,425,227,377,91,28.2,27.1,27.1,17.6,1.9,3.5,34.3,22.9,12.2,20.3,4.9,961,96146,94571,2891,0,0,2891,100,2884,99.8,0,0,0,0,0,0,0,0,0,0,7,0.2,470.2
Central High School,Central CUSD 3,506.2,507.1,65,65,Illinois,40.0634613,-91.0286892,2110 State Highway 94,62320,Adams County,Camp Point,17001,"2110 State Highway 94, Camp Point, Illinois, 62320",10200,17001010200,2023,10200,Adams County,Illinois,247,20,124,74,29,2675,53,205,1039,517,318,368,175,8.1,50.2,30,11.7,2,7.7,38.8,19.3,11.9,13.8,6.5,1572,63914,89097,3842,94,2.4,3748,97.6,3642,94.8,67,1.7,0,0,6,0.2,0,0,8,0.2,25,0.7,506.2
Unity High School,CUSD 4,485.1,464.4,41,41,Illinois,40.0884906,-91.2910548,453 West Collins Street,62351,Adams County,Mendon,17001,"453 West Collins Street, Mendon, Illinois, 62351",10100,17001010100,2023,10100,Adams County,Illinois,283,50,70,125,38,3167,21,159,1180,685,457,493,172,17.7,24.7,44.2,13.4,0.7,5,37.3,21.6,14.4,15.6,5.4,1854,74034,85037,4632,88,1.9,4544,98.1,4459,96.3,17,0.4,1,0,0,0,0,0,13,0.3,54,1.2,485.1
Quincy Sr High School,Quincy SD 172,476.4,449.4,433,434,Illinois,39.9305553,-91.3624173,3322 Maine Street,62301,Adams County,Quincy,17001,"3322 Maine Street, Quincy, Illinois, 62301",1100,17001001100,2023,1100,Adams County,Illinois,1102,105,350,404,243,5293,148,188,1279,1056,466,1287,869,9.5,31.8,36.7,22.1,2.8,3.6,24.2,20,8.8,24.3,16.4,3242,79500,103780,8097,104,1.3,7993,98.7,7250,89.5,274,3.4,0,0,97,1.2,0,0,10,0.1,362,4.5,476.4
Brown County High School,Brown County CUSD 1,491,487.1,42,42,Illinois,39.9831244,-90.7522741,500 East Main Street,62353,Brown County,Mount Sterling,17009,"500 East Main Street, Mount Sterling, Illinois, 62353",970500,17009970500,2023,970500,Brown County,Illinois,379,87,174,109,9,3033,171,685,1054,470,203,339,111,23,45.9,28.8,2.4,5.6,22.6,34.8,15.5,6.7,11.2,3.7,983,68542,83291,3946,307,7.8,3639,92.2,2516,63.8,1082,27.4,10,0.3,2,0.1,0,0,0,0,29,0.7,491
Beardstown Jr/Sr High School,Beardstown CUSD 15,419.3,394.2,90,90,Illinois,40.0074999,-90.4223555,500 East 15th Street,62618,Cass County,Beardstown,17017,"500 East 15th Street, Beardstown, Illinois, 62618",960300,17017960300,2023,960300,Cass County,Illinois,187,0,139,48,0,2165,214,111,867,333,113,434,93,0,74.3,25.7,0,9.9,5.1,40,15.4,5.2,20,4.3,1291,71618,91244,3063,1060,34.6,2003,65.4,2002,65.4,0,0,0,0,0,0,0,0,0,0,1,0,419.3
Virginia Jr/ Sr High School,Virginia CUSD 64,490.8,468.3,13,13,Illinois,39.9464836,-90.2182312,651 South Morgan Street,62691,Cass County,Virginia,17017,"651 South Morgan Street, Virginia, Illinois, 62691",960200,17017960200,2023,960200,Cass County,Illinois,173,38,86,39,10,1944,55,82,834,380,130,351,112,22,49.7,22.5,5.8,2.8,4.2,42.9,19.5,6.7,18.1,5.8,1128,62328,84024,2668,75,2.8,2593,97.2,2534,95,20,0.7,0,0,3,0.1,0,0,7,0.3,29,1.1,490.8
A-C Central High School,A-C Central CUSD 262,469.2,441.7,24,24,Illinois,39.8926467,-90.0127216,601 West Buchanan Street,62612,Cass County,Ashland,17017,"601 West Buchanan Street, Ashland, Illinois, 62612",960100,17017960100,2023,960100,Cass County,Illinois,123,17,64,38,4,1385,57,81,596,246,157,160,88,13.8,52,30.9,3.3,4.1,5.8,43,17.8,11.3,11.6,6.4,916,60556,75270,1968,10,0.5,1958,99.5,1867,94.9,2,0.1,9,0.5,0,0,0,0,49,2.5,31,1.6,469.2
Franklin Jr/Sr High School,Franklin CUSD 1,455.5,433.6,22,22,Illinois,39.623455,-90.0469665,110 State Street,62638,Morgan County,Franklin,17137,"110 State Street, Franklin, Illinois, 62638",952300,17137952300,2023,952300,Morgan County,Illinois,228,44,89,76,19,2211,33,106,993,491,139,272,177,19.3,39,33.3,8.3,1.5,4.8,44.9,22.2,6.3,12.3,8,1260,70476,94286,3337,143,4.3,3194,95.7,3112,93.3,33,1,0,0,14,0.4,0,0,0,0,35,1,455.5
Waverly Junior/Senior High School,Waverly CUSD 6,445.2,424.8,21,21,Illinois,39.5926856,-89.9603042,201 North Miller Street,62692,Morgan County,Waverly,17137,"201 North Miller Street, Waverly, Illinois, 62692",952300,17137952300,2023,952300,Morgan County,Illinois,228,44,89,76,19,2211,33,106,993,491,139,272,177,19.3,39,33.3,8.3,1.5,4.8,44.9,22.2,6.3,12.3,8,1260,70476,94286,3337,143,4.3,3194,95.7,3112,93.3,33,1,0,0,14,0.4,0,0,0,0,35,1,445.2
Meredosia-Chambersburg High Sch,Meredosia-Chambersburg CUSD 11,416.7,388.7,15,15,Illinois,39.8314704,-90.5543899,830 Main Street,62665,Morgan County,Meredosia,17137,"830 Main Street, Meredosia, Illinois, 62665",951400,17137951400,2023,951400,Morgan County,Illinois,152,65,64,23,0,1721,50,52,815,374,200,145,85,42.8,42.1,15.1,0,2.9,3,47.4,21.7,11.6,8.4,4.9,1011,61066,77558,2424,19,0.8,2405,99.2,2306,95.1,0,0,0,0,0,0,0,0,0,0,99,4.1,416.7
Triopia Jr-Sr High School,Triopia CUSD 27,476.2,491,29,30,Illinois,39.8406508,-90.372008,2204 Concord Arenzville Road,62631,Morgan County,Concord,17137,"2204 Concord Arenzville Road, Concord, Illinois, 62631",951400,17137951400,2023,951400,Morgan County,Illinois,152,65,64,23,0,1721,50,52,815,374,200,145,85,42.8,42.1,15.1,0,2.9,3,47.4,21.7,11.6,8.4,4.9,1011,61066,77558,2424,19,0.8,2405,99.2,2306,95.1,0,0,0,0,0,0,0,0,0,0,99,4.1,476.2
Jacksonville High School,Jacksonville SD 117,477.6,448.2,177,177,Illinois,39.750431,-90.24005,1211 North Diamond Street,62650,Morgan County,Jacksonville,17137,"1211 North Diamond Street, Jacksonville, Illinois, 62650",951700,17137951700,2023,951700,Morgan County,Illinois,143,36,72,4,31,1900,86,129,1057,353,124,133,18,25.2,50.3,2.8,21.7,4.5,6.8,55.6,18.6,6.5,7,0.9,866,43162,61981,2716,145,5.3,2571,94.7,2350,86.5,171,6.3,0,0,0,0,0,0,0,0,50,1.8,477.6
Pleasant Hill High School,Pleasant Hill CUSD 3,438.3,422.3,31,31,Illinois,39.4410208,-90.8683035,501 East Quincy Street,62366,Pike County,Pleasant Hill,17149,"501 East Quincy Street, Pleasant Hill, Illinois, 62366",952600,17149952600,2023,952600,Pike County,Illinois,217,25,103,74,15,1655,30,89,657,363,167,292,57,11.5,47.5,34.1,6.9,1.8,5.4,39.7,21.9,10.1,17.6,3.4,938,65978,77468,2737,15,0.5,2722,99.5,2677,97.8,7,0.3,1,0,8,0.3,0,0,1,0,28,1,438.3
Griggsville-Perry High School,Griggsville-Perry CUSD 4,461,438,30,30,Illinois,39.7728701,-90.7913227,,N/A,Pike County,N/A,17149,,952400,17149952400,2023,952400,Pike County,Illinois,268,85,121,54,8,2021,53,135,881,428,242,174,108,31.7,45.1,20.1,3,2.6,6.7,43.6,21.2,12,8.6,5.3,1241,50665,68614,2855,93,3.3,2762,96.7,2540,89,20,0.7,0,0,5,0.2,97,3.4,0,0,100,3.5,461
Pittsfield High School,Pikeland CUSD 10,470.5,450.3,79,79,Illinois,39.6000518,-90.8053207,201 East Higbee Street,62363,Pike County,Pittsfield,17149,"201 East Higbee Street, Pittsfield, Illinois, 62363",952700,17149952700,2023,952700,Pike County,Illinois,250,37,135,52,26,3429,44,136,1370,823,282,604,170,14.8,54,20.8,10.4,1.3,4,40,24,8.2,17.6,5,2002,54932,69056,4628,87,1.9,4541,98.1,4407,95.2,42,0.9,0,0,27,0.6,0,0,0,0,65,1.4,470.5
Western High School,Western CUSD 12,493.3,463.7,27,27,Illinois,39.6971968,-91.044325,401 McDonough Street,62312,Pike County,Barry,17149,"401 McDonough Street, Barry, Illinois, 62312",952500,17149952500,2023,952500,Pike County,Illinois,172,28,100,27,17,1749,40,127,745,360,152,219,106,16.3,58.1,15.7,9.9,2.3,7.3,42.6,20.6,8.7,12.5,6.1,962,65000,72985,2521,50,2,2471,98,2432,96.5,3,0.1,0,0,8,0.3,0,0,5,0.2,23,0.9,493.3
Winchester High School,Winchester CUSD 1,460.3,443.6,33,33,Illinois,39.6275071,-90.4595794,200 West Cross Street,62694,Scott County,Winchester,17171,"200 West Cross Street, Winchester, Illinois, 62694",970700,17171970700,2023,970700,Scott County,Illinois,260,31,102,108,19,2155,16,124,998,312,234,380,91,11.9,39.2,41.5,7.3,0.7,5.8,46.3,14.5,10.9,17.6,4.2,1327,63917,81479,3133,15,0.5,3118,99.5,3053,97.4,0,0,3,0.1,14,0.4,0,0,0,0,48,1.5,460.3
Bluffs High School,Scott-Morgan CUSD 2,451.7,466.7,18,18,Illinois,39.7519902,-90.5351258,,62621,Scott County,Bluffs,17171,,970600,17171970600,2023,970600,Scott County,Illinois,116,12,66,32,6,1278,32,62,562,222,108,227,65,10.3,56.9,27.6,5.2,2.5,4.9,44,17.4,8.5,17.8,5.1,705,85288,94692,1714,56,3.3,1658,96.7,1584,92.4,51,3,1,0.1,7,0.4,0,0,0,0,15,0.9,451.7
Mulberry Grove Sr High School,Mulberry Grove CUSD 1,451.6,443.4,32,32,Illinois,38.924212,-89.2775275,801 West Wall Street,62262,Bond County,Mulberry Grove,17005,"801 West Wall Street, Mulberry Grove, Illinois, 62262",951200,17005951200,2023,951200,Bond County,Illinois,315,69,138,65,43,2027,34,94,702,422,300,246,229,21.9,43.8,20.6,13.7,1.7,4.6,34.6,20.8,14.8,12.1,11.3,1261,63098,80463,2767,78,2.8,2689,97.2,2553,92.3,22,0.8,6,0.2,0,0,0,0,0,0,108,3.9,451.6
Bond Cty Comm Unit 2 High School,Bond County CUSD 2,495.2,472.9,122,123,Illinois,38.9011707,-89.3989236,1000 Illinois 140,62246,Bond County,Greenville,17005,"1000 Illinois 140, Greenville, Illinois, 62246",951400,17005951400,2023,951400,Bond County,Illinois,315,61,132,106,16,1914,32,129,725,457,198,189,184,19.4,41.9,33.7,5.1,1.7,6.7,37.9,23.9,10.3,9.9,9.6,1034,64028,85413,2894,53,1.8,2841,98.2,2684,92.7,45,1.6,66,2.3,0,0,0,0,0,0,46,1.6,495.2
Morrisonville High School,Morrisonville CUSD 1,447.8,403.5,23,23,Illinois,39.4226983,-89.457837,204 North Perrine Street,62546,Christian County,Morrisonville,17021,"204 North Perrine Street, Morrisonville, Illinois, 62546",959000,17021959000,2023,959000,Christian County,Illinois,286,49,111,107,19,3581,51,239,1490,655,270,657,219,17.1,38.8,37.4,6.6,1.4,6.7,41.6,18.3,7.5,18.3,6.1,1800,80577,96453,4902,161,3.3,4741,96.7,4596,93.8,31,0.6,0,0,11,0.2,0,0,53,1.1,50,1,447.8
Taylorville Sr High School,Taylorville CUSD 3,475.2,453.2,176,176,Illinois,39.60783,-89.2086773,,N/A,Christian County,N/A,17021,,958600,17021958600,2023,958600,Christian County,Illinois,183,18,82,35,48,1463,23,151,519,232,134,330,74,9.8,44.8,19.1,26.2,1.6,10.3,35.5,15.9,9.2,22.6,5.1,896,68571,74732,2212,20,0.9,2192,99.1,2159,97.6,2,0.1,1,0,12,0.5,0,0,0,0,18,0.8,475.2
Edinburg High School,Edinburg CUSD 4,493.1,402.3,13,13,Illinois,39.6708067,-89.3795835,,N/A,Christian County,N/A,17021,,958100,17021958100,2023,958100,Christian County,Illinois,193,24,100,31,38,1974,8,73,993,390,194,231,85,12.4,51.8,16.1,19.7,0.4,3.7,50.3,19.8,9.8,11.7,4.3,1103,80071,94333,2636,40,1.5,2596,98.5,2436,92.4,35,1.3,0,0,3,0.1,4,0.2,3,0.1,115,4.4,493.1
Pana Sr High School,Pana CUSD 8,473,438.6,79,79,Illinois,39.3588992,-89.1324866,,N/A,Christian County,N/A,17021,,958700,17021958700,2023,958700,Christian County,Illinois,446,74,94,265,13,4177,111,490,1733,905,331,364,243,16.6,21.1,59.4,2.9,2.7,11.7,41.5,21.7,7.9,8.7,5.8,1735,60172,73839,5416,376,6.9,5040,93.1,4628,85.5,292,5.4,1,0,14,0.3,3,0.1,0,0,102,1.9,473
South Fork Jr Sr High School,South Fork SD 14,417,393.5,20,20,Illinois,39.5881153,-89.4124539,612 Dial Street,62540,Christian County,Kincaid,17021,"612 Dial Street, Kincaid, Illinois, 62540",958200,17021958200,2023,958200,Christian County,Illinois,219,2,71,104,42,2480,15,152,1252,594,234,157,76,0.9,32.4,47.5,19.2,0.6,6.1,50.5,24,9.4,6.3,3.1,1528,66944,90729,3375,240,7.1,3135,92.9,3094,91.7,0,0,0,0,3,0.1,0,0,0,0,38,1.1,417
Altamont High School,Altamont CUSD 10,462.2,445.3,59,59,Illinois,39.0590516,-88.7408097,7 South Ewing Street,62411,Effingham County,Altamont,17049,"7 South Ewing Street, Altamont, Illinois, 62411",950300,17049950300,2023,950300,Effingham County,Illinois,211,37,109,62,3,3135,131,97,1070,837,440,407,153,17.5,51.7,29.4,1.4,4.2,3.1,34.1,26.7,14,13,4.9,1736,78448,89821,4333,16,0.4,4317,99.6,4238,97.8,26,0.6,0,0,0,0,0,0,5,0.1,48,1.1,462.2
Beecher City Jr-Sr High School,Beecher City CUSD 20,504.2,524.2,24,24,Illinois,39.1682823,-88.7301525,,N/A,Effingham County,N/A,17049,,950200,17049950200,2023,950200,Effingham County,Illinois,221,14,104,70,33,3339,60,132,944,647,521,729,306,6.3,47.1,31.7,14.9,1.8,4,28.3,19.4,15.6,21.8,9.2,1935,91875,122235,4812,49,1,4763,99,4727,98.2,0,0,0,0,0,0,0,0,0,0,36,0.7,504.2
Dieterich Jr/Sr High School,Dieterich CUSD 30,468.6,468.9,35,35,Illinois,39.0575103,-88.3825759,108 West Church Street,62424,Effingham County,Dieterich,17049,"108 West Church Street, Dieterich, Illinois, 62424",950500,17049950500,2023,950500,Effingham County,Illinois,155,17,42,56,40,2963,45,98,1089,581,386,587,177,11,27.1,36.1,25.8,1.5,3.3,36.8,19.6,13,19.8,6,1676,74917,89896,4414,66,1.5,4348,98.5,4285,97.1,0,0,0,0,18,0.4,0,0,6,0.1,39,0.9,468.6
Effingham High School,Effingham CUSD 40,471.2,451.4,168,168,Illinois,39.1163715,-88.5575871,1301 Grove Avenue,62401,Effingham County,Effingham,17049,"1301 Grove Avenue, Effingham, Illinois, 62401",950800,17049950800,2023,950800,Effingham County,Illinois,508,86,190,131,101,2621,140,108,822,476,370,435,270,16.9,37.4,25.8,19.9,5.3,4.1,31.4,18.2,14.1,16.6,10.3,1708,64700,75481,4031,397,9.8,3634,90.2,3514,87.2,31,0.8,3,0.1,0,0,0,0,0,0,86,2.1,471.2
Teutopolis High School,Teutopolis CUSD 50,503.4,492,93,93,Illinois,39.1288995,-88.4872311,801 West Main Street,62467,Effingham County,Teutopolis,17049,"801 West Main Street, Teutopolis, Illinois, 62467",950100,17049950100,2023,950100,Effingham County,Illinois,353,46,115,160,32,2710,19,77,891,518,387,530,288,13,32.6,45.3,9.1,0.7,2.8,32.9,19.1,14.3,19.6,10.6,1586,93393,133825,4044,39,1,4005,99,3802,94,19,0.5,0,0,81,2,0,0,8,0.2,95,2.3,503.4
Brownstown High School,Brownstown CUSD 201,456.2,434.8,21,21,Illinois,38.9919794,-88.9573503,421 South College Avenue,62418,Fayette County,Brownstown,17051,"421 South College Avenue, Brownstown, Illinois, 62418",950600,17051950600,2023,950600,Fayette County,Illinois,131,20,67,28,16,1535,10,83,637,335,222,216,32,15.3,51.1,21.4,12.2,0.7,5.4,41.5,21.8,14.5,14.1,2.1,907,60063,74329,2196,5,0.2,2191,99.8,2132,97.1,0,0,5,0.2,19,0.9,0,0,0,0,35,1.6,456.2
St Elmo Sr High School,St Elmo CUSD 202,476.6,446.9,29,30,Illinois,39.0445443,-88.8455037,,N/A,Fayette County,N/A,17051,,950500,17051950500,2023,950500,Fayette County,Illinois,221,24,88,92,17,1860,45,134,822,419,222,141,77,10.9,39.8,41.6,7.7,2.4,7.2,44.2,22.5,11.9,7.6,4.1,1040,51522,77608,2730,45,1.6,2685,98.4,2607,95.5,9,0.3,0,0,9,0.3,0,0,0,0,60,2.2,476.6
Vandalia Community High School,Vandalia CUSD 203,448.1,437.5,75,75,Illinois,38.972798,-89.1006547,1109 North 8th Street,62471,Fayette County,Vandalia,17051,"1109 North 8th Street, Vandalia, Illinois, 62471",950800,17051950800,2023,950800,Fayette County,Illinois,385,42,83,245,15,3256,81,355,1443,594,382,293,108,10.9,21.6,63.6,3.9,2.5,10.9,44.3,18.2,11.7,9,3.3,1365,43102,60979,4241,297,7,3944,93,3227,76.1,503,11.9,69,1.6,4,0.1,10,0.2,0,0,131,3.1,448.1
Ramsey High School,Ramsey CUSD 204,456.9,455.2,42,42,Illinois,39.1405275,-89.1140872,702 6th Street,62080,Fayette County,Ramsey,17051,"702 6th Street, Ramsey, Illinois, 62080",950700,17051950700,2023,950700,Fayette County,Illinois,508,61,202,245,0,3758,22,353,1173,682,409,763,356,12,39.8,48.2,0,0.6,9.4,31.2,18.1,10.9,20.3,9.5,1911,73692,101095,5570,186,3.3,5384,96.7,5015,90,86,1.5,5,0.1,0,0,0,0,0,0,278,5,456.9
Lincolnwood High School,Panhandle CUSD 2,463.7,457,27,27,Illinois,39.3268102,-89.5714264,507 North Prairie Street,62560,Montgomery County,Raymond,17135,"507 North Prairie Street, Raymond, Illinois, 62560",957500,17135957500,2023,957500,Montgomery County,Illinois,269,48,78,128,15,1982,31,88,663,486,216,339,159,17.8,29,47.6,5.6,1.6,4.4,33.5,24.5,10.9,17.1,8,1239,77031,87154,3082,179,5.8,2903,94.2,2772,89.9,36,1.2,15,0.5,4,0.1,0,0,0,0,76,2.5,463.7
Hillsboro High School,Hillsboro CUSD 3,457,431.2,105,105,Illinois,39.1527446,-89.4877793,522 East Tremont Street,62049,Montgomery County,Hillsboro,17135,"522 East Tremont Street, Hillsboro, Illinois, 62049",957900,17135957900,2023,957900,Montgomery County,Illinois,227,7,116,80,24,3374,68,256,1168,1000,262,316,304,3.1,51.1,35.2,10.6,2,7.6,34.6,29.6,7.8,9.4,9,2006,50743,71417,4623,105,2.3,4518,97.7,4395,95.1,20,0.4,0,0,0,0,0,0,50,1.1,53,1.1,457
Litchfield Senior High School,Litchfield CUSD 12,463.9,445.5,98,98,Illinois,39.1889,-89.6554583,1705 North State Street,62056,Montgomery County,Litchfield,17135,"1705 North State Street, Litchfield, Illinois, 62056",957700,17135957700,2023,957700,Montgomery County,Illinois,126,12,48,30,36,2117,35,76,857,340,195,415,199,9.5,38.1,23.8,28.6,1.7,3.6,40.5,16.1,9.2,19.6,9.4,1218,60000,73708,2934,7,0.2,2927,99.8,2880,98.2,0,0,0,0,23,0.8,0,0,0,0,24,0.8,463.9
Nokomis Jr/Sr High Sch,Nokomis CUSD 22,465.4,468.3,35,35,Illinois,39.3046773,-89.2951517,511 Oberle Street,62075,Montgomery County,Nokomis,17135,"511 Oberle Street, Nokomis, Illinois, 62075",957300,17135957300,2023,957300,Montgomery County,Illinois,265,68,87,91,19,2135,106,164,961,423,173,224,84,25.7,32.8,34.3,7.2,5,7.7,45,19.8,8.1,10.5,3.9,1291,62202,76434,3126,43,1.4,3083,98.6,2924,93.5,6,0.2,1,0,119,3.8,0,0,0,0,33,1.1,465.4
Belvidere High School,Belvidere CUSD 100,438,410.5,267,266,Illinois,42.2444132,-88.8308238,1500 East Avenue,61008,Boone County,Belvidere,17007,"1500 East Avenue, Belvidere, Illinois, 61008",10200,17007010200,2023,10200,Boone County,Illinois,420,42,70,277,31,3775,361,228,1180,996,347,377,286,10,16.7,66,7.4,9.6,6,31.3,26.4,9.2,10,7.6,2400,42466,67020,5645,2535,44.9,3110,55.1,2718,48.1,147,2.6,0,0,68,1.2,0,0,28,0.5,149,2.6,438
Belvidere North High Sch,Belvidere CUSD 100,480.4,454.6,322,322,Illinois,42.2892229,-88.8626944,9393 Beloit Road,61008,Boone County,Belvidere,17007,"9393 Beloit Road, Belvidere, Illinois, 61008",10502,17007010502,2023,10502,Boone County,Illinois,410,95,104,174,37,3747,74,146,1410,746,275,660,436,23.2,25.4,42.4,9,2,3.9,37.6,19.9,7.3,17.6,11.6,1872,81884,111635,5101,682,13.4,4419,86.6,4039,79.2,52,1,0,0,255,5,0,0,0,0,73,1.4,480.4
North Boone High School,North Boone CUSD 200,461.4,434.6,125,126,Illinois,42.4129133,-88.8191428,17823 Poplar Grove Road,61065,Boone County,Poplar Grove,17007,"17823 Poplar Grove Road, Poplar Grove, Illinois, 61065",10601,17007010601,2023,10601,Boone County,Illinois,358,38,205,111,4,2441,184,90,810,537,168,488,164,10.6,57.3,31,1.1,7.5,3.7,33.2,22,6.9,20,6.7,1300,96786,108189,3580,699,19.5,2881,80.5,2827,79,0,0,0,0,0,0,0,0,0,0,54,1.5,461.4
Auburn High School,Rockford SD 205,473.6,447.2,356,357,Illinois,42.2867708,-89.138098,5110 Auburn Street,61101,Winnebago County,Rockford,17201,"5110 Auburn Street, Rockford, Illinois, 61101",2301,17201002301,2023,2301,Winnebago County,Illinois,144,13,69,5,57,1694,22,256,652,423,94,130,117,9,47.9,3.5,39.6,1.3,15.1,38.5,25,5.5,7.7,6.9,871,34148,50811,2240,389,17.4,1851,82.6,1134,50.6,671,30,0,0,0,0,0,0,10,0.4,36,1.6,473.6
Rockford East High School,Rockford SD 205,429.3,410.3,336,338,Illinois,42.2563589,-89.0495867,2929 Charles Street,61108,Winnebago County,Rockford,17201,"2929 Charles Street, Rockford, Illinois, 61108",1500,17201001500,2023,1500,Winnebago County,Illinois,488,130,72,286,0,3698,325,358,934,813,724,278,266,26.6,14.8,58.6,0,8.8,9.7,25.3,22,19.6,7.5,7.2,2253,47420,66533,5326,1639,30.8,3687,69.2,2807,52.7,520,9.8,19,0.4,207,3.9,0,0,0,0,134,2.5,429.3
Guilford High School,Rockford SD 205,464.9,440.2,439,440,Illinois,42.2980626,-89.0069754,5620 Spring Creek Road,61114,Winnebago County,Rockford,17201,"5620 Spring Creek Road, Rockford, Illinois, 61114",516,17201000516,2023,516,Winnebago County,Illinois,260,108,41,111,0,2716,72,60,679,403,180,713,609,41.5,15.8,42.7,0,2.7,2.2,25,14.8,6.6,26.3,22.4,1456,110116,115934,3696,603,16.3,3093,83.7,2801,75.8,130,3.5,1,0,0,0,0,0,7,0.2,154,4.2,464.9
Jefferson High School,Rockford SD 205,406.7,385,450,450,Illinois,42.2070913,-89.0377287,4145 Samuelson Road,61109,Winnebago County,Rockford,17201,"4145 Samuelson Road, Rockford, Illinois, 61109",3706,17201003706,2023,3706,Winnebago County,Illinois,281,51,87,143,0,3944,47,349,1192,892,429,672,363,18.1,31,50.9,0,1.2,8.8,30.2,22.6,10.9,17,9.2,2245,90985,98060,5539,430,7.8,5109,92.2,3985,71.9,572,10.3,0,0,395,7.1,0,0,0,0,157,2.8,406.7
Hononegah CHD High School,Hononegah CHD 207,548.9,528.4,456,456,Illinois,42.4298917,-89.1324866,,N/A,Winnebago County,N/A,17201,,3901,17201003901,2023,3901,Winnebago County,Illinois,383,10,203,117,53,3393,1,71,975,625,453,642,626,2.6,53,30.5,13.8,0,2.1,28.7,18.4,13.4,18.9,18.4,1798,121293,134319,5231,623,11.9,4608,88.1,3993,76.3,238,4.5,0,0,271,5.2,0,0,0,0,106,2,548.9
South Beloit Sr High School,County of Winnebago SD 320,460.4,462.6,47,47,Illinois,42.4859566,-89.0426311,850 Hayes Avenue,61080,Winnebago County,South Beloit,17201,"850 Hayes Avenue, South Beloit, Illinois, 61080",4004,17201004004,2023,4004,Winnebago County,Illinois,318,82,141,95,0,4385,47,206,1511,858,727,644,392,25.8,44.3,29.9,0,1.1,4.7,34.5,19.6,16.6,14.7,8.9,2688,69883,80249,6297,541,8.6,5756,91.4,5024,79.8,248,3.9,0,0,72,1.1,0,0,0,0,412,6.5,460.4
Pecatonica High School,Pecatonica CUSD 321,533,510.2,83,83,Illinois,42.3024686,-89.3585816,1300 Main Street,61063,Winnebago County,Pecatonica,17201,"1300 Main Street, Pecatonica, Illinois, 61063",4300,17201004300,2023,4300,Winnebago County,Illinois,240,39,95,73,33,3554,33,71,1151,963,403,688,245,16.3,39.6,30.4,13.8,0.9,2,32.4,27.1,11.3,19.4,6.9,2063,94375,112080,5016,116,2.3,4900,97.7,4611,91.9,16,0.3,3,0.1,17,0.3,0,0,5,0.1,248,4.9,533
Durand High School,Durand CUSD 322,470.6,446.3,49,49,Illinois,42.4329245,-89.3341091,200 West South Street,61024,Winnebago County,Durand,17201,"200 West South Street, Durand, Illinois, 61024",4100,17201004100,2023,4100,Winnebago County,Illinois,365,42,81,186,56,3714,22,185,1278,901,486,585,257,11.5,22.2,51,15.3,0.6,5,34.4,24.3,13.1,15.8,6.9,2034,94250,112730,5081,74,1.5,5007,98.5,4821,94.9,45,0.9,0,0,30,0.6,0,0,16,0.3,95,1.9,470.6
Winnebago High School,Winnebago CUSD 323,495.9,480.1,80,80,Illinois,42.2717305,-89.239431,200 East McNair Road,61088,Winnebago County,Winnebago,17201,"200 East McNair Road, Winnebago, Illinois, 61088",4200,17201004200,2023,4200,Winnebago County,Illinois,342,14,156,162,10,4202,91,276,1104,965,496,616,654,4.1,45.6,47.4,2.9,2.2,6.6,26.3,23,11.8,14.7,15.6,2295,90839,126773,6017,381,6.3,5636,93.7,5377,89.4,29,0.5,3,0,45,0.7,0,0,8,0.1,174,2.9,495.9
Evanston Twp High School,Evanston Twp HSD 202,542.2,522.4,824,827,Illinois,42.0463103,-87.7007442,1600 Dodge Avenue,60201,Cook County,Evanston,17031,"1600 Dodge Avenue, Evanston, Illinois, 60201",809600,17031809600,2023,809600,Cook County,Illinois,83,10,30,43,0,2275,26,168,514,267,104,574,622,12,36.1,51.8,0,1.1,7.4,22.6,11.7,4.6,25.2,27.3,1359,71635,132870,2987,428,14.3,2559,85.7,1236,41.4,892,29.9,0,0,182,6.1,0,0,0,0,249,8.3,542.2
New Trier Township H S Winnetka,New Trier Twp HSD 203,612.4,603.8,926,926,Illinois,42.0930019,-87.7251711,High Street,60093,Cook County,Winnetka,17031,"High Street, Winnetka, Illinois, 60093",800500,17031800500,2023,800500,Cook County,Illinois,235,83,88,44,20,3417,0,57,159,263,69,1277,1592,35.3,37.4,18.7,8.5,0,1.7,4.7,7.7,2,37.4,46.6,1841,250001,418646,5465,80,1.5,5385,98.5,4945,90.5,43,0.8,0,0,103,1.9,11,0.2,0,0,283,5.2,612.4
Maine East High School,Maine Township HSD 207,483.1,465.7,451,452,Illinois,42.0383867,-87.8586582,2601 Dempster Street,60068,Cook County,Park Ridge,17031,"2601 Dempster Street, Park Ridge, Illinois, 60068",805902,17031805902,2023,805902,Cook County,Illinois,469,70,216,158,25,4649,126,245,703,679,222,1975,699,14.9,46.1,33.7,5.3,2.7,5.3,15.1,14.6,4.8,42.5,15,2194,153182,207326,6238,433,6.9,5805,93.1,3916,62.8,98,1.6,0,0,1497,24,0,0,0,0,294,4.7,483.1
Maine South High School,Maine Township HSD 207,549.7,542.1,578,578,Illinois,42.0004819,-87.8537674,1111 South Dee Road,60068,Cook County,Park Ridge,17031,"1111 South Dee Road, Park Ridge, Illinois, 60068",805701,17031805701,2023,805701,Cook County,Illinois,161,24,70,67,0,3559,13,66,299,541,133,1493,1014,14.9,43.5,41.6,0,0.4,1.9,8.4,15.2,3.7,41.9,28.5,2041,176577,208588,5258,458,8.7,4800,91.3,4346,82.7,97,1.8,0,0,219,4.2,0,0,0,0,138,2.6,549.7
Maine West High School,Maine Township HSD 207,484.1,469.3,437,438,Illinois,42.0210151,-87.9068809,1755 South Wolf Road,60018,Cook County,Des Plaines,17031,"1755 South Wolf Road, Des Plaines, Illinois, 60018",770602,17031770602,2023,770602,Cook County,Illinois,638,108,320,166,44,3183,619,320,998,382,307,310,247,16.9,50.2,26,6.9,19.4,10.1,31.4,12,9.6,9.7,7.8,1541,85913,94916,4795,2629,54.8,2166,45.2,1566,32.7,47,1,0,0,419,8.7,0,0,6,0.1,128,2.7,484.1
J B Conant High School,Township HSD 211,534.7,552.2,612,613,Illinois,42.0363212,-88.0619521,700 East Cougar Trail,60169,Cook County,Hoffman Estates,17031,"700 East Cougar Trail, Hoffman Estates, Illinois, 60169",804608,17031804608,2023,804608,Cook County,Illinois,237,39,91,75,32,2724,48,77,458,388,199,782,772,16.5,38.4,31.6,13.5,1.8,2.8,16.8,14.2,7.3,28.7,28.3,1604,123889,145020,3890,536,13.8,3354,86.2,1646,42.3,100,2.6,0,0,1380,35.5,0,0,72,1.9,156,4,534.7
Wm Fremd High School,Township HSD 211,572.1,583.2,625,626,Illinois,42.0947146,-88.0647694,1000 South Quentin Road,60067,Cook County,Palatine,17031,"1000 South Quentin Road, Palatine, Illinois, 60067",804102,17031804102,2023,804102,Cook County,Illinois,441,41,131,182,87,4606,47,50,301,503,274,1910,1521,9.3,29.7,41.3,19.7,1,1.1,6.5,10.9,5.9,41.5,33,2370,175204,209694,6763,141,2.1,6622,97.9,5049,74.7,122,1.8,0,0,1268,18.7,0,0,0,0,183,2.7,572.1
Palatine High School,Township HSD 211,478.3,470.6,602,603,Illinois,42.1326312,-88.0225277,1111 North Rohlwing Road,60074,Cook County,Palatine,17031,"1111 North Rohlwing Road, Palatine, Illinois, 60074",803605,17031803605,2023,803605,Cook County,Illinois,392,27,89,143,133,4487,314,63,719,728,429,1396,838,6.9,22.7,36.5,33.9,7,1.4,16,16.2,9.6,31.1,18.7,2510,103409,129058,6243,820,13.1,5423,86.9,3833,61.4,641,10.3,0,0,784,12.6,82,1.3,15,0.2,68,1.1,478.3
Schaumburg High School,Township HSD 211,518.3,532.3,572,573,Illinois,42.0273099,-88.1067061,1100 West Schaumburg Road,60194,Cook County,Schaumburg,17031,"1100 West Schaumburg Road, Schaumburg, Illinois, 60194",804710,17031804710,2023,804710,Cook County,Illinois,140,6,16,81,37,2794,31,88,622,600,344,777,332,4.3,11.4,57.9,26.4,1.1,3.1,22.3,21.5,12.3,27.8,11.9,1512,97917,113214,3619,444,12.3,3175,87.7,2322,64.2,86,2.4,0,0,642,17.7,0,0,0,0,125,3.5,518.3
Hoffman Estates High School,Township HSD 211,501.5,497.7,487,487,Illinois,42.0529247,-88.1075151,1100 West Higgins Road,60169,Cook County,Hoffman Estates,17031,"1100 West Higgins Road, Hoffman Estates, Illinois, 60169",804706,17031804706,2023,804706,Cook County,Illinois,92,0,20,44,28,1612,28,55,376,259,152,484,258,0,21.7,47.8,30.4,1.7,3.4,23.3,16.1,9.4,30,16,721,121838,140687,2284,464,20.3,1820,79.7,1236,54.1,61,2.7,0,0,354,15.5,0,0,6,0.3,163,7.1,501.5
Elk Grove High School,Township HSD 214,479.3,461.9,481,481,Illinois,42.0112193,-87.9976725,500 West Elk Grove Boulevard,60007,Cook County,Elk Grove Village,17031,"500 West Elk Grove Boulevard, Elk Grove Village, Illinois, 60007",770300,17031770300,2023,770300,Cook County,Illinois,440,22,215,169,34,4820,163,225,1341,787,418,1173,713,5,48.9,38.4,7.7,3.4,4.7,27.8,16.3,8.7,24.3,14.8,2791,80568,106381,6855,1102,16.1,5753,83.9,5027,73.3,339,4.9,0,0,294,4.3,0,0,0,0,93,1.4,479.3
John Hersey High School,Township HSD 214,577.9,564.2,509,509,Illinois,42.1038234,-87.9590565,1900 East Thomas Street,60004,Cook County,Arlington Heights,17031,"1900 East Thomas Street, Arlington Heights, Illinois, 60004",802608,17031802608,2023,802608,Cook County,Illinois,320,62,214,13,31,4564,93,35,998,682,404,1536,816,19.4,66.9,4.1,9.7,2,0.8,21.9,14.9,8.9,33.7,17.9,2896,94583,116598,5847,352,6,5495,94,5011,85.7,189,3.2,0,0,219,3.7,0,0,14,0.2,62,1.1,577.9
Prospect High School,Township HSD 214,557.9,551.1,574,575,Illinois,42.0791362,-87.9497214,801 West Kensington Road,60056,Cook County,Mount Prospect,17031,"801 West Kensington Road, Mount Prospect, Illinois, 60056",802801,17031802801,2023,802801,Cook County,Illinois,237,61,68,43,65,3227,68,48,344,362,164,1128,1113,25.7,28.7,18.1,27.4,2.1,1.5,10.7,11.2,5.1,35,34.5,1842,136563,161394,4690,644,13.7,4046,86.3,3436,73.3,107,2.3,0,0,354,7.5,0,0,5,0.1,144,3.1,557.9
Wheeling High School,Township HSD 214,457.7,458.7,428,429,Illinois,42.1259362,-87.9386557,900 South Elmhurst Road,60090,Cook County,Wheeling,17031,"900 South Elmhurst Road, Wheeling, Illinois, 60090",802504,17031802504,2023,802504,Cook County,Illinois,551,10,236,292,13,4668,677,154,1229,680,425,1055,448,1.8,42.8,53,2.4,14.5,3.3,26.3,14.6,9.1,22.6,9.6,2079,89188,111511,6895,2665,38.7,4230,61.3,2497,36.2,19,0.3,0,0,1292,18.7,0,0,291,4.2,131,1.9,457.7
Rolling Meadows High School,Township HSD 214,504.8,488.8,508,510,Illinois,42.0648867,-88.0157286,2901 Central Road,60008,Cook County,Rolling Meadows,17031,"2901 Central Road, Rolling Meadows, Illinois, 60008",805105,17031805105,2023,805105,Cook County,Illinois,938,223,159,537,19,4627,661,406,1029,642,203,1180,506,23.8,17,57.2,2,14.3,8.8,22.2,13.9,4.4,25.5,10.9,2766,82800,97135,7236,3472,48,3764,52,2481,34.3,355,4.9,0,0,716,9.9,0,0,0,0,212,2.9,504.8
Buffalo Grove High School,Township HSD 214,512.6,521.3,504,504,Illinois,42.1404353,-87.9838107,1100 West Dundee Road,60089,Cook County,Buffalo Grove,17031,"1100 West Dundee Road, Buffalo Grove, Illinois, 60089",803013,17031803013,2023,803013,Cook County,Illinois,352,16,169,122,45,4023,87,0,597,1004,475,1010,850,4.5,48,34.7,12.8,2.2,0,14.8,25,11.8,25.1,21.1,2394,106226,120207,5556,472,8.5,5084,91.5,4379,78.8,141,2.5,0,0,293,5.3,0,0,0,0,271,4.9,512.6
Niles North High School,Niles Twp HSD 219,522.9,510.4,453,453,Illinois,42.0597222,-87.7541667,9800 Lawler Avenue,60077,Cook County,Skokie,17031,"9800 Lawler Avenue, Skokie, Illinois, 60077",806900,17031806900,2023,806900,Cook County,Illinois,470,49,209,201,11,3867,113,77,1127,355,265,1116,814,10.4,44.5,42.8,2.3,2.9,2,29.1,9.2,6.9,28.9,21,2213,74036,94664,5198,578,11.1,4620,88.9,2193,42.2,438,8.4,0,0,1811,34.8,0,0,0,0,178,3.4,522.9
Niles West High School,Niles Twp HSD 219,513,507.6,622,622,Illinois,42.0258557,-87.771763,5701 Oakton Street,60077,Cook County,Skokie,17031,"5701 Oakton Street, Skokie, Illinois, 60077",807800,17031807800,2023,807800,Cook County,Illinois,179,30,38,86,25,1889,76,48,343,259,106,568,489,16.8,21.2,48,14,4,2.5,18.2,13.7,5.6,30.1,25.9,835,156771,174943,2666,125,4.7,2541,95.3,1465,55,63,2.4,0,0,852,32,1,0,0,0,160,6,513
Glenbrook North High School,Glenbrook HSD 225,597,607.7,470,470,Illinois,42.1114267,-87.8319199,2300 Shermer Road,60062,Cook County,Northbrook,17031,"2300 Shermer Road, Northbrook, Illinois, 60062",801608,17031801608,2023,801608,Cook County,Illinois,83,0,13,60,10,4783,198,50,444,772,142,1451,1726,0,15.7,72.3,12,4.1,1,9.3,16.1,3,30.3,36.1,2599,138886,173800,6271,126,2,6145,98,4051,64.6,52,0.8,0,0,1800,28.7,0,0,0,0,242,3.9,597
Glenbrook South High School,Glenbrook HSD 225,561.4,559.5,748,748,Illinois,42.0887384,-87.8515991,4000 West Lake Avenue,60026,Cook County,Glenview,17031,"4000 West Lake Avenue, Glenview, Illinois, 60026",801607,17031801607,2023,801607,Cook County,Illinois,233,9,58,80,86,3990,65,55,569,293,113,1428,1467,3.9,24.9,34.3,36.9,1.6,1.4,14.3,7.3,2.8,35.8,36.8,2032,152500,198622,5616,352,6.3,5264,93.7,2765,49.2,114,2,0,0,2064,36.8,13,0.2,26,0.5,282,5,561.4
Oak Park & River Forest High Sch,Oak Park - River Forest SD 200,562.8,538,784,792,Illinois,41.8901719,-87.7887467,201 North Scoville Avenue,60302,Cook County,Oak Park,17031,"201 North Scoville Avenue, Oak Park, Illinois, 60302",812400,17031812400,2023,812400,Cook County,Illinois,137,0,36,11,90,2158,0,14,62,114,52,696,1220,0,26.3,8,65.7,0,0.6,2.9,5.3,2.4,32.3,56.5,1083,250001,291544,3296,122,3.7,3174,96.3,2570,78,212,6.4,0,0,156,4.7,0,0,0,0,236,7.2,562.8
J Sterling Morton East High Sch,J S Morton HSD 201,428.4,417.8,1067,1067,Illinois,41.8464648,-87.773097,2423 South Austin Boulevard,60804,Cook County,Cicero,17031,"2423 South Austin Boulevard, Cicero, Illinois, 60804",814000,17031814000,2023,814000,Cook County,Illinois,616,49,259,301,7,2994,421,204,1188,536,145,375,125,8,42,48.9,1.1,14.1,6.8,39.7,17.9,4.8,12.5,4.2,1434,68438,90142,4689,3950,84.2,739,15.8,611,13,81,1.7,11,0.2,0,0,0,0,0,0,36,0.8,428.4
J Sterling Morton West High Sch,J S Morton HSD 201,450.7,427.6,816,816,Illinois,41.845527,-87.7989553,2400 Home Avenue,60402,Cook County,Berwyn,17031,"2400 Home Avenue, Berwyn, Illinois, 60402",814800,17031814800,2023,814800,Cook County,Illinois,639,18,189,347,85,4687,188,418,1144,1413,489,698,337,2.8,29.6,54.3,13.3,4,8.9,24.4,30.1,10.4,14.9,7.2,2561,67435,84078,6535,3325,50.9,3210,49.1,2208,33.8,714,10.9,0,0,252,3.9,0,0,0,0,36,0.6,450.7
Lyons Twp High Sch,Lyons Twp HSD 204,549.2,550.9,914,915,Illinois,41.7909734,-87.8844309,,N/A,Cook County,N/A,17031,,820103,17031820103,2023,820103,Cook County,Illinois,344,58,114,128,44,2948,80,144,601,539,217,1022,345,16.9,33.1,37.2,12.8,2.7,4.9,20.4,18.3,7.4,34.7,11.7,1691,89834,140261,4125,570,13.8,3555,86.2,2955,71.6,195,4.7,0,0,205,5,0,0,0,0,200,4.8,549.2
Riverside Brookfield Twp HS,Riverside-Brookfield Twp SD 208,531.7,523.9,403,404,Illinois,41.8285598,-87.8307379,160 Ridgewood Road,60546,Cook County,Riverside,17031,"160 Ridgewood Road, Riverside, Illinois, 60546",815702,17031815702,2023,815702,Cook County,Illinois,236,68,91,19,58,3468,0,35,358,291,232,1334,1218,28.8,38.6,8.1,24.6,0,1,10.3,8.4,6.7,38.5,35.1,1977,147993,177589,5006,1603,32,3403,68,3087,61.7,25,0.5,0,0,106,2.1,0,0,0,0,185,3.7,531.7
Proviso East High School,Proviso Twp HSD 209,418.1,383.2,361,361,Illinois,41.8802148,-87.8335909,807 South 1st Avenue,60153,Cook County,Maywood,17031,"807 South 1st Avenue, Maywood, Illinois, 60153",817500,17031817500,2023,817500,Cook County,Illinois,505,0,287,196,22,2464,463,236,966,288,174,221,116,0,56.8,38.8,4.4,18.8,9.6,39.2,11.7,7.1,9,4.7,1276,61371,88244,4105,1205,29.4,2900,70.6,467,11.4,2097,51.1,3,0.1,21,0.5,0,0,0,0,312,7.6,418.1
Proviso West High School,Proviso Twp HSD 209,415.2,390.5,502,506,Illinois,41.8670215,-87.9003778,4701 Harrison Street,60162,Cook County,Hillside,17031,"4701 Harrison Street, Hillside, Illinois, 60162",818401,17031818401,2023,818401,Cook County,Illinois,112,16,42,54,0,2633,225,231,674,720,174,473,136,14.3,37.5,48.2,0,8.5,8.8,25.6,27.3,6.6,18,5.2,1357,80841,97388,3142,848,27,2294,73,1284,40.9,923,29.4,0,0,22,0.7,0,0,0,0,65,2.1,415.2
Proviso Math and Science Academy,Proviso Twp HSD 209,539.4,508.7,198,198,Illinois,41.8650958,-87.8326269,8601 Roosevelt Road,60130,Cook County,Forest Park,17031,"8601 Roosevelt Road, Forest Park, Illinois, 60130",816100,17031816100,2023,816100,Cook County,Illinois,228,2,119,13,94,4373,125,254,1059,942,356,854,783,0.9,52.2,5.7,41.2,2.9,5.8,24.2,21.5,8.1,19.5,17.9,2563,62389,91810,5679,649,11.4,5030,88.6,3205,56.4,1426,25.1,1,0,248,4.4,0,0,17,0.3,133,2.3,539.4
East Leyden High School,Leyden CHSD 212,465.4,453.1,441,441,Illinois,41.9418475,-87.8663751,3400 Rose Street,60131,Cook County,Franklin Park,17031,"3400 Rose Street, Franklin Park, Illinois, 60131",811500,17031811500,2023,811500,Cook County,Illinois,513,81,91,258,83,4017,379,269,1421,718,354,703,173,15.8,17.7,50.3,16.2,9.4,6.7,35.4,17.9,8.8,17.5,4.3,1974,77296,93330,6173,2937,47.6,3236,52.4,3129,50.7,0,0,0,0,99,1.6,0,0,0,0,8,0.1,465.4
West Leyden High School,Leyden CHSD 212,461.6,441.2,421,422,Illinois,41.926648,-87.9054261,1000 Wolf Road,60164,Cook County,Northlake,17031,"1000 Wolf Road, Northlake, Illinois, 60164",811702,17031811702,2023,811702,Cook County,Illinois,628,33,391,204,0,3531,410,269,1370,588,445,283,166,5.3,62.3,32.5,0,11.6,7.6,38.8,16.7,12.6,8,4.7,2020,71514,86876,5669,3584,63.2,2085,36.8,1645,29,71,1.3,0,0,333,5.9,0,0,0,0,36,0.6,461.6
Ridgewood Comm High School,Ridgewood CHSD 234,483,471.4,199,199,Illinois,41.9613366,-87.8151834,7500 West Montrose Avenue,60706,Cook County,Norridge,17031,"7500 West Montrose Avenue, Norridge, Illinois, 60706",810502,17031810502,2023,810502,Cook County,Illinois,235,0,39,177,19,4500,472,347,1415,909,196,672,489,0,16.6,75.3,8.1,10.5,7.7,31.4,20.2,4.4,14.9,10.9,2084,82037,102928,5947,981,16.5,4966,83.5,4213,70.8,37,0.6,0,0,710,11.9,0,0,0,0,6,0.1,483
Elmwood Park High School,Elmwood Park CUSD 401,469.8,460.2,245,245,Illinois,41.9223095,-87.8297199,8201 West Fullerton Avenue,60707,Cook County,Elmwood Park,17031,"8201 West Fullerton Avenue, Elmwood Park, Illinois, 60707",811100,17031811100,2023,811100,Cook County,Illinois,613,95,116,311,91,4626,180,183,1458,976,672,976,181,15.5,18.9,50.7,14.8,3.9,4,31.5,21.1,14.5,21.1,3.9,2722,70714,82560,6915,2456,35.5,4459,64.5,4122,59.6,9,0.1,0,0,244,3.5,0,0,47,0.7,37,0.5,469.8
Thornton Township High School,Thornton Twp HSD 205,414.7,398.2,346,347,Illinois,41.5969681,-87.6383797,,N/A,Cook County,N/A,17031,,827500,17031827500,2023,827500,Cook County,Illinois,616,0,436,143,37,2769,494,246,1164,575,239,44,7,0,70.8,23.2,6,17.8,8.9,42,20.8,8.6,1.6,0.3,1457,61165,73562,4321,2496,57.8,1825,42.2,297,6.9,1497,34.6,0,0,0,0,0,0,10,0.2,21,0.5,414.7
Thornridge High School,Thornton Twp HSD 205,402.8,383.1,236,237,Illinois,41.6212571,-87.5992885,15000 Cottage Grove Avenue,60419,Cook County,Dolton,17031,"15000 Cottage Grove Avenue, Dolton, Illinois, 60419",826301,17031826301,2023,826301,Cook County,Illinois,572,36,261,151,124,2726,9,119,871,642,554,266,265,6.3,45.6,26.4,21.7,0.3,4.4,32,23.6,20.3,9.8,9.7,1447,68699,75640,4164,189,4.5,3975,95.5,76,1.8,3703,88.9,0,0,18,0.4,0,0,148,3.6,30,0.7,402.8
Thornwood High School,Thornton Twp HSD 205,422.9,406.9,472,472,Illinois,41.5833193,-87.6052283,17101 South Park Avenue,60473,Cook County,South Holland,17031,"17101 South Park Avenue, South Holland, Illinois, 60473",827805,17031827805,2023,827804,Cook County,Illinois,154,7,82,36,29,1813,0,141,319,569,244,347,193,4.5,53.2,23.4,18.8,0,7.8,17.6,31.4,13.5,19.1,10.6,950,97361,104060,2541,43,1.7,2498,98.3,222,8.7,2156,84.8,0,0,0,0,0,0,0,0,120,4.7,422.9
Bloom High School,Bloom Twp HSD 206,421.7,399.4,418,419,Illinois,41.5145734,-87.6431299,101 West 10th Street,60411,Cook County,Chicago Heights,17031,"101 West 10th Street, Chicago Heights, Illinois, 60411",829200,17031829200,2023,829200,Cook County,Illinois,701,198,108,395,0,3520,276,356,1128,573,362,586,239,28.2,15.4,56.3,0,7.8,10.1,32,16.3,10.3,16.6,6.8,1807,57796,81430,5930,3367,56.8,2563,43.2,1167,19.7,1242,20.9,28,0.5,0,0,0,0,80,1.3,46,0.8,421.7
Bloom Trail High School,Bloom Twp HSD 206,422.1,394,253,253,Illinois,41.4847473,-87.5953393,22331 Cottage Grove Avenue,60411,Cook County,Sauk Village,17031,"22331 Cottage Grove Avenue, Sauk Village, Illinois, 60411",829700,17031829700,2023,829700,Cook County,Illinois,239,5,152,79,3,1991,52,148,776,519,115,327,54,2.1,63.6,33.1,1.3,2.6,7.4,39,26.1,5.8,16.4,2.7,1074,53409,71552,2827,199,7,2628,93,801,28.3,1741,61.6,0,0,56,2,0,0,8,0.3,22,0.8,422.1
Lemont Twp High School,Lemont Twp HSD 210,544.8,542.7,331,331,Illinois,41.6834271,-87.9922684,,N/A,Cook County,N/A,17031,,824004,17031824004,2023,824004,Cook County,Illinois,371,28,27,282,34,3580,125,69,848,588,337,775,838,7.5,7.3,76,9.2,3.5,1.9,23.7,16.4,9.4,21.6,23.4,1978,104842,129023,4846,487,10,4359,90,4003,82.6,106,2.2,0,0,246,5.1,0,0,0,0,4,0.1,544.8
Thornton Fractnl No High School,Thornton Fractional Twp HSD 215,425.8,397.1,294,294,Illinois,41.5800416,-87.5445302,,N/A,Cook County,N/A,17031,,827902,17031827902,2023,827902,Cook County,Illinois,264,44,134,86,0,2773,82,69,1185,726,174,265,272,16.7,50.8,32.6,0,3,2.5,42.7,26.2,6.3,9.6,9.8,1578,61862,103898,4183,754,18,3429,82,615,14.7,2175,52,0,0,528,12.6,0,0,17,0.4,94,2.2,425.8
Thornton Fractnl So High School,Thornton Fractional Twp HSD 215,457.1,428.4,484,484,Illinois,41.5586522,-87.541417,18500 Burnham Avenue,60438,Cook County,Lansing,17031,"18500 Burnham Avenue, Lansing, Illinois, 60438",828100,17031828100,2023,828100,Cook County,Illinois,258,99,118,0,41,3479,72,122,1216,965,246,544,314,38.4,45.7,0,15.9,2.1,3.5,35,27.7,7.1,15.6,9,2021,64782,76575,5051,1019,20.2,4032,79.8,1653,32.7,2354,46.6,0,0,12,0.2,0,0,0,0,13,0.3,457.1
Argo Community High School,Argo CHSD 217,452.9,442.7,415,415,Illinois,41.7769328,-87.8044959,7329 West 63rd Street,60501,Cook County,Summit,17031,"7329 West 63rd Street, Summit, Illinois, 60501",820400,17031820400,2023,820400,Cook County,Illinois,263,68,41,118,36,3532,708,438,1285,582,177,267,75,25.9,15.6,44.9,13.7,20,12.4,36.4,16.5,5,7.6,2.1,1842,56250,83203,4896,3553,72.6,1343,27.4,477,9.7,696,14.2,0,0,133,2.7,0,0,0,0,37,0.8,452.9
DD Eisenhower High Sch (Campus),CHSD 218,426,415.7,417,416,Illinois,41.661215,-87.6952439,12700 Sacramento Avenue,60406,Cook County,Blue Island,17031,"12700 Sacramento Avenue, Blue Island, Illinois, 60406",823400,17031823400,2023,823400,Cook County,Illinois,599,184,359,56,0,3245,465,158,993,975,202,293,159,30.7,59.9,9.3,0,14.3,4.9,30.6,30,6.2,9,4.9,1807,61725,71825,5195,2538,48.9,2657,51.1,1253,24.1,1404,27,0,0,0,0,0,0,0,0,0,0,426
H L Richards High Sch(Campus),CHSD 218,456.8,442.2,376,376,Illinois,41.6984199,-87.7587835,10601 Central Avenue,60453,Cook County,Oak Lawn,17031,"10601 Central Avenue, Oak Lawn, Illinois, 60453",822602,17031822602,2023,822602,Cook County,Illinois,476,130,47,33,266,5475,206,228,1259,1206,773,1245,558,27.3,9.9,6.9,55.9,3.8,4.2,23,22,14.1,22.7,10.2,3205,73194,96300,7729,1253,16.2,6476,83.8,4811,62.2,1009,13.1,0,0,222,2.9,0,0,54,0.7,380,4.9,456.8
A B Shepard High Sch (Campus),CHSD 218,465.1,454.1,433,433,Illinois,41.6550845,-87.7757889,13049 South Ridgeland Avenue,60463,Cook County,Palos Heights,17031,"13049 South Ridgeland Avenue, Palos Heights, Illinois, 60463",823602,17031823602,2023,823602,Cook County,Illinois,333,0,92,162,79,4879,214,174,1454,1583,500,748,206,0,27.6,48.6,23.7,4.4,3.6,29.8,32.4,10.2,15.3,4.2,2738,81196,92793,5797,742,12.8,5055,87.2,4366,75.3,376,6.5,0,0,137,2.4,0,0,65,1.1,111,1.9,465.1
Reavis High School,Reavis Twp HSD 220,464.1,445.3,484,482,Illinois,41.7534406,-87.771345,6034 West 77th Street,60459,Cook County,Burbank,17031,"6034 West 77th Street, Burbank, Illinois, 60459",820901,17031820901,2023,820901,Cook County,Illinois,464,106,101,251,6,3399,455,240,1387,585,267,356,109,22.8,21.8,54.1,1.3,13.4,7.1,40.8,17.2,7.9,10.5,3.2,1749,73245,94261,5155,2473,48,2682,52,2536,49.2,5,0.1,0,0,71,1.4,0,0,0,0,70,1.4,464.1
Rich Township High School,Rich Twp HSD 227,418.7,388,539,543,Illinois,41.5194582,-87.7566513,,N/A,Cook County,N/A,17031,,830003,17031830003,2023,830003,Cook County,Illinois,512,0,252,132,128,5599,125,202,1322,1120,219,1391,1220,0,49.2,25.8,25,2.2,3.6,23.6,20,3.9,24.8,21.8,2797,128750,146391,8131,321,3.9,7810,96.1,317,3.9,7028,86.4,0,0,0,0,0,0,0,0,465,5.7,418.7
Bremen High School,Bremen CHSD 228,437.6,424.1,356,356,Illinois,41.6155258,-87.7155899,15203 Pulaski Road,60445,Cook County,Midlothian,17031,"15203 Pulaski Road, Midlothian, Illinois, 60445",824702,17031824702,2023,824702,Cook County,Illinois,394,56,193,132,13,4051,411,282,1276,1003,396,419,264,14.2,49,33.5,3.3,10.1,7,31.5,24.8,9.8,10.3,6.5,2445,61549,80715,5576,2273,40.8,3303,59.2,1979,35.5,664,11.9,0,0,217,3.9,0,0,194,3.5,249,4.5,437.6
Tinley Park High School,Bremen CHSD 228,472.9,456.2,266,267,Illinois,41.5725484,-87.7666471,6111 175th Street,60477,Cook County,Tinley Park,17031,"6111 175th Street, Tinley Park, Illinois, 60477",825400,17031825400,2023,825400,Cook County,Illinois,288,0,72,216,0,4220,26,95,1261,953,549,773,563,0,25,75,0,0.6,2.3,29.9,22.6,13,18.3,13.3,2463,94743,102860,5643,1300,23,4343,77,3475,61.6,267,4.7,10,0.2,335,5.9,0,0,21,0.4,235,4.2,472.9
Hillcrest High School,Bremen CHSD 228,408.3,393.2,293,293,Illinois,41.5733568,-87.7122008,17401 Pulaski Road,60478,Cook County,Country Club Hills,17031,"17401 Pulaski Road, Country Club Hills, Illinois, 60478",825501,17031825501,2023,825501,Cook County,Illinois,464,0,344,88,32,3300,134,196,1044,865,213,480,368,0,74.1,19,6.9,4.1,5.9,31.6,26.2,6.5,14.5,11.2,1654,68245,113939,5041,129,2.6,4912,97.4,312,6.2,4547,90.2,0,0,53,1.1,0,0,0,0,0,0,408.3
Oak Forest High School,Bremen CHSD 228,479.6,471.7,330,330,Illinois,41.6157058,-87.7538726,15201 Central Avenue,60452,Cook County,Oak Forest,17031,"15201 Central Avenue, Oak Forest, Illinois, 60452",824602,17031824602,2023,824602,Cook County,Illinois,547,88,242,165,52,4642,355,132,1337,1225,412,763,418,16.1,44.2,30.2,9.5,7.6,2.8,28.8,26.4,8.9,16.4,9,2565,79637,92452,6739,1577,23.4,5162,76.6,3929,58.3,641,9.5,3,0,215,3.2,0,0,0,0,374,5.5,479.6
Oak Lawn Comm High School,Oak Lawn CHSD 229,467.8,457.5,437,437,Illinois,41.72162,-87.767984,9400 Southwest Highway,60453,Cook County,Oak Lawn,17031,"9400 Southwest Highway, Oak Lawn, Illinois, 60453",822200,17031822200,2023,822200,Cook County,Illinois,349,32,125,172,20,2539,64,108,899,678,235,364,191,9.2,35.8,49.3,5.7,2.5,4.3,35.4,26.7,9.3,14.3,7.5,1318,90517,95035,3583,1004,28,2579,72,2214,61.8,263,7.3,14,0.4,27,0.8,0,0,20,0.6,41,1.1,467.8
Carl Sandburg High School,Cons HSD 230,525.3,503.5,707,708,Illinois,41.6495359,-87.8550911,13300 LaGrange Road,60462,Cook County,Orland Park,17031,"13300 LaGrange Road, Orland Park, Illinois, 60462",823801,17031823801,2023,823801,Cook County,Illinois,142,0,10,66,66,4205,89,167,893,636,251,1143,1026,0,7,46.5,46.5,2.1,4,21.2,15.1,6,27.2,24.4,2143,121063,182030,5422,313,5.8,5109,94.2,4206,77.6,70,1.3,0,0,537,9.9,0,0,201,3.7,95,1.8,525.3
Amos Alonzo Stagg High School,Cons HSD 230,503.8,494.5,526,526,Illinois,41.6878991,-87.8185898,8015 West 111th Street,60465,Cook County,Palos Hills,17031,"8015 West 111th Street, Palos Hills, Illinois, 60465",823805,17031823805,2023,823804,Cook County,Illinois,211,0,29,153,29,2267,113,64,684,376,265,528,237,0,13.7,72.5,13.7,5,2.8,30.2,16.6,11.7,23.3,10.5,1404,70938,89352,3004,316,10.5,2688,89.5,2461,81.9,65,2.2,0,0,125,4.2,0,0,0,0,37,1.2,503.8
Victor J Andrew High School,Cons HSD 230,503.7,486.3,520,520,Illinois,41.5784738,-87.8391212,9001 West 171st Street,60487,Cook County,Tinley Park,17031,"9001 West 171st Street, Tinley Park, Illinois, 60487",824126,17031824126,2023,824126,Cook County,Illinois,313,0,83,176,54,3974,9,44,888,495,580,1130,828,0,26.5,56.2,17.3,0.2,1.1,22.3,12.5,14.6,28.4,20.8,1992,173056,175585,5451,180,3.3,5271,96.7,4662,85.5,89,1.6,0,0,418,7.7,0,0,0,0,102,1.9,503.7
Evergreen Park High School,Evergreen Park CHSD 231,484.9,458.1,229,230,Illinois,41.7128974,-87.7005257,9901 South Kedzie Avenue,60805,Cook County,Evergreen Park,17031,"9901 South Kedzie Avenue, Evergreen Park, Illinois, 60805",821900,17031821900,2023,821900,Cook County,Illinois,270,15,130,112,13,3415,100,86,635,712,419,872,591,5.6,48.1,41.5,4.8,2.9,2.5,18.6,20.8,12.3,25.5,17.3,1782,101071,109388,5043,915,18.1,4128,81.9,3061,60.7,740,14.7,0,0,221,4.4,0,0,10,0.2,96,1.9,484.9
Homewood-Flossmoor High School,Homewood Flossmoor CHSD 233,469.5,448.6,689,690,Illinois,41.5461635,-87.6914792,999 Kedzie Avenue,60422,Cook County,Flossmoor,17031,"999 Kedzie Avenue, Flossmoor, Illinois, 60422",829800,17031829800,2023,829800,Cook County,Illinois,223,36,55,45,87,4807,0,45,677,927,260,1411,1487,16.1,24.7,20.2,39,0,0.9,14.1,19.3,5.4,29.4,30.9,2398,141250,162193,6716,61,0.9,6655,99.1,2248,33.5,3936,58.6,0,0,56,0.8,0,0,0,0,415,6.2,469.5
Southland College Prep Charter High School,Southland College Prep Charter High School,481.5,456.4,135,135,Illinois,41.483955,-87.7286089,4601 Sauk Trail,60471,Cook County,Richton Park,17031,"4601 Sauk Trail, Richton Park, Illinois, 60471",830007,17031830007,2023,830007,Cook County,Illinois,249,10,140,77,22,3307,10,145,1002,945,423,390,392,4,56.2,30.9,8.8,0.3,4.4,30.3,28.6,12.8,11.8,11.9,1950,57273,73325,4810,116,2.4,4694,97.6,580,12.1,4114,85.5,0,0,0,0,0,0,0,0,0,0,481.5
Eastland Jr/Sr High School,Eastland CUSD 308,518.6,517.5,44,44,Illinois,42.0970832,-89.8305087,500 School Drive,61046,Carroll County,Lanark,17015,"500 School Drive, Lanark, Illinois, 61046",960100,17015960100,2023,960100,Carroll County,Illinois,404,36,190,148,30,2364,40,70,776,650,314,344,170,8.9,47,36.6,7.4,1.7,3,32.8,27.5,13.3,14.6,7.2,1443,76929,96814,3521,93,2.6,3428,97.4,3309,94,8,0.2,0,0,39,1.1,0,0,5,0.1,67,1.9,518.6
West Carroll High School,West Carroll CUSD 314,459.7,439.9,70,70,Illinois,42.0965745,-90.1346469,500 Cragmoor Street,61074,Carroll County,Savanna,17015,"500 Cragmoor Street, Savanna, Illinois, 61074",960300,17015960300,2023,960300,Carroll County,Illinois,193,0,62,55,76,2381,92,274,726,637,267,323,62,0,32.1,28.5,39.4,3.9,11.5,30.5,26.8,11.2,13.6,2.6,1560,46944,64130,3099,231,7.5,2868,92.5,2757,89,6,0.2,10,0.3,0,0,0,0,0,0,95,3.1,459.7
Chadwick-Milledgeville Jr/Sr High School,Chadwick-Milledgeville CUSD 399,498.2,475,28,28,Illinois,41.9591724,-89.8130356,,N/A,Carroll County,N/A,17015,,960500,17015960500,2023,960500,Carroll County,Illinois,221,8,72,84,57,1722,89,42,645,410,177,271,88,3.6,32.6,38,25.8,5.2,2.4,37.5,23.8,10.3,15.7,5.1,1043,72695,82341,2477,141,5.7,2336,94.3,2287,92.3,2,0.1,0,0,30,1.2,0,0,0,0,17,0.7,498.2
East Dubuque High School,East Dubuque USD 119,473.1,469.1,35,35,Illinois,42.4970641,-90.6259636,200 Parklane Drive,61025,Jo Daviess County,East Dubuque,17085,"200 Parklane Drive, East Dubuque, Illinois, 61025",20200,17085020200,2023,20200,Jo Daviess County,Illinois,348,38,134,156,20,3499,192,110,1447,639,475,513,123,10.9,38.5,44.8,5.7,5.5,3.1,41.4,18.3,13.6,14.7,3.5,2139,84665,92727,4401,176,4,4225,96,4013,91.2,51,1.2,1,0,21,0.5,0,0,59,1.3,80,1.8,473.1
Galena High School,Galena USD 120,524.6,505.8,59,59,Illinois,42.427397,-90.440316,1206 Franklin Street,61036,Jo Daviess County,Galena,17085,"1206 Franklin Street, Galena, Illinois, 61036",20300,17085020300,2023,20300,Jo Daviess County,Illinois,311,0,109,202,0,3859,8,132,895,682,426,1100,616,0,35,65,0,0.2,3.4,23.2,17.7,11,28.5,16,2579,72157,95477,5046,121,2.4,4925,97.6,4776,94.6,45,0.9,25,0.5,68,1.3,0,0,0,0,11,0.2,524.6
Warren Jr/Sr High School,Warren CUSD 205,503.7,520.5,19,19,Illinois,42.494047,-89.990382,311 South Water Street,61087,Jo Daviess County,Warren,17085,"311 South Water Street, Warren, Illinois, 61087",20102,17085020102,2023,20102,Jo Daviess County,Illinois,177,55,55,62,5,1693,71,115,685,357,205,187,73,31.1,31.1,35,2.8,4.2,6.8,40.5,21.1,12.1,11,4.3,1043,69837,76458,2481,111,4.5,2370,95.5,2233,90,29,1.2,0,0,1,0,0,0,3,0.1,104,4.2,503.7
Stockton Sr High School,Stockton CUSD 206,498.9,478.9,45,45,Illinois,42.3562429,-90.0129041,540 North Rush Street,61085,Jo Daviess County,Stockton,17085,"540 North Rush Street, Stockton, Illinois, 61085",20500,17085020500,2023,20500,Jo Daviess County,Illinois,169,6,40,39,84,2150,36,78,613,685,324,353,61,3.6,23.7,23.1,49.7,1.7,3.6,28.5,31.9,15.1,16.4,2.8,1379,60781,76424,3064,128,4.2,2936,95.8,2825,92.2,16,0.5,0,0,10,0.3,0,0,0,0,85,2.8,498.9
Scales Mound High School,Scales Mound CUSD 211,497.3,510,22,22,Illinois,42.4750406,-90.250785,210 Main Street,61075,Jo Daviess County,Scales Mound,17085,"210 Main Street, Scales Mound, Illinois, 61075",20101,17085020101,2023,20101,Jo Daviess County,Illinois,104,17,65,19,3,1516,46,27,507,401,148,216,171,16.3,62.5,18.3,2.9,3,1.8,33.4,26.5,9.8,14.2,11.3,914,86667,107849,1975,54,2.7,1921,97.3,1876,95,0,0,1,0.1,0,0,2,0.1,0,0,42,2.1,497.3
Freeport High School,Freeport SD 145,439.5,410,255,262,Illinois,42.2874901,-89.6292216,701 West Moseley Street,61032,Stephenson County,Freeport,17177,"701 West Moseley Street, Freeport, Illinois, 61032",1200,17177001200,2023,1200,Stephenson County,Illinois,331,14,89,228,0,2712,80,339,853,692,392,263,93,4.2,26.9,68.9,0,2.9,12.5,31.5,25.5,14.5,9.7,3.4,1773,50952,62123,4141,501,12.1,3640,87.9,2666,64.4,500,12.1,0,0,97,2.3,0,0,42,1,335,8.1,439.5
Pearl City High School,Pearl City CUSD 200,510.4,485.2,27,27,Illinois,42.2558456,-89.8317729,,N/A,Stephenson County,N/A,17177,,400,17177000400,2023,400,Stephenson County,Illinois,162,13,62,74,13,1714,64,63,542,417,245,261,122,8,38.3,45.7,8,3.7,3.7,31.6,24.3,14.3,15.2,7.1,999,69750,77650,2675,81,3,2594,97,2485,92.9,93,3.5,0,0,0,0,0,0,0,0,16,0.6,510.4
Dakota Jr Sr High School,Dakota CUSD 201,501.3,492.1,53,53,Illinois,42.3866225,-89.5304598,400 Campus Drive,61018,Stephenson County,Dakota,17177,"400 Campus Drive, Dakota, Illinois, 61018",100,17177000100,2023,100,Stephenson County,Illinois,337,6,161,125,45,3122,19,138,857,820,472,469,347,1.8,47.8,37.1,13.4,0.6,4.4,27.5,26.3,15.1,15,11.1,1748,83517,103884,4555,223,4.9,4332,95.1,4198,92.2,18,0.4,0,0,30,0.7,0,0,0,0,86,1.9,501.3
Lena-Winslow High School,Lena Winslow CUSD 202,500.6,493.6,64,64,Illinois,42.3786874,-89.8154142,516 Fremont Street,61048,Stephenson County,Lena,17177,"516 Fremont Street, Lena, Illinois, 61048",300,17177000300,2023,300,Stephenson County,Illinois,161,7,74,78,2,2707,60,128,896,721,225,456,221,4.3,46,48.4,1.2,2.2,4.7,33.1,26.6,8.3,16.8,8.2,1614,85086,99071,3795,156,4.1,3639,95.9,3574,94.2,2,0.1,0,0,2,0.1,0,0,4,0.1,57,1.5,500.6
Orangeville High School,Orangeville CUSD 203,493.7,487.4,19,19,Illinois,42.4674502,-89.6417864,201 South Orange Street,61060,Stephenson County,Orangeville,17177,"201 South Orange Street, Orangeville, Illinois, 61060",200,17177000200,2023,200,Stephenson County,Illinois,184,22,45,106,11,2173,24,221,633,535,294,354,112,12,24.5,57.6,6,1.1,10.2,29.1,24.6,13.5,16.3,5.2,1293,72813,87168,3020,136,4.5,2884,95.5,2798,92.6,3,0.1,0,0,0,0,0,0,7,0.2,76,2.5,493.7
Fisher Jr/Sr High School,Fisher CUSD 1,517.6,495.3,45,45,Illinois,40.3100928,-88.3550504,211 West Division Street,61843,Champaign County,Fisher,17019,"211 West Division Street, Fisher, Illinois, 61843",10500,17019010500,2023,10500,Champaign County,Illinois,224,14,119,70,21,3047,0,46,775,613,409,748,456,6.3,53.1,31.3,9.4,0,1.5,25.4,20.1,13.4,24.5,15,1588,107208,139743,4398,29,0.7,4369,99.3,4046,92,11,0.3,0,0,64,1.5,0,0,4,0.1,244,5.5,517.6
Mahomet-Seymour High School,Mahomet-Seymour CUSD 3,538.8,558.9,214,214,Illinois,40.2021766,-88.4111624,302 West State Street,61853,Champaign County,Mahomet,17019,"302 West State Street, Mahomet, Illinois, 61853",10601,17019010601,2023,10601,Champaign County,Illinois,381,28,46,273,34,3819,47,19,654,517,600,1057,925,7.3,12.1,71.7,8.9,1.2,0.5,17.1,13.5,15.7,27.7,24.2,2024,123876,144852,6254,291,4.7,5963,95.3,5687,90.9,37,0.6,0,0,91,1.5,0,0,0,0,148,2.4,538.8
Centennial High School,Champaign CUSD 4,476.2,469.4,303,302,Illinois,40.1059565,-88.2823141,913 Crescent Drive,61821,Champaign County,Champaign,17019,"913 Crescent Drive, Champaign, Illinois, 61821",1201,17019001201,2023,1201,Champaign County,Illinois,893,231,408,171,83,4625,47,121,1036,1091,369,1095,866,25.9,45.7,19.1,9.3,1,2.6,22.4,23.6,8,23.7,18.7,2924,53118,67728,6963,259,3.7,6704,96.3,2747,39.5,2670,38.3,0,0,894,12.8,0,0,0,0,393,5.6,476.2
Central High School,Champaign CUSD 4,503.4,497.2,359,359,Illinois,40.1166359,-88.2535712,610 West University Avenue,61820,Champaign County,Champaign,17019,"610 West University Avenue, Champaign, Illinois, 61820",11001,17019011001,2023,11001,Champaign County,Illinois,197,12,0,49,136,1751,0,60,78,369,166,462,616,6.1,0,24.9,69,0,3.4,4.5,21.1,9.5,26.4,35.2,1337,59115,91720,2227,197,8.8,2030,91.2,1757,78.9,141,6.3,0,0,56,2.5,0,0,0,0,76,3.4,503.4
Unity High School,Tolono CUSD 7,510.2,493.8,136,136,Illinois,39.9940386,-88.2490526,1127 County Road 800,61880,Champaign County,Tolono,17019,"1127 County Road 800, Tolono, Illinois, 61880",10901,17019010901,2023,10901,Champaign County,Illinois,602,8,237,101,256,4142,26,74,1335,915,378,911,503,1.3,39.4,16.8,42.5,0.6,1.8,32.2,22.1,9.1,22,12.1,2401,96141,119645,6363,166,2.6,6197,97.4,5606,88.1,155,2.4,0,0,313,4.9,0,0,28,0.4,95,1.5,510.2
Heritage High School,Heritage CUSD 8,478.1,448.1,26,26,Illinois,39.9069639,-87.9933394,206 East Diller Street,61816,Champaign County,Broadlands,17019,"206 East Diller Street, Broadlands, Illinois, 61816",10800,17019010800,2023,10800,Champaign County,Illinois,316,7,183,109,17,2715,27,74,884,670,403,431,226,2.2,57.9,34.5,5.4,1,2.7,32.6,24.7,14.8,15.9,8.3,1585,95927,120287,3989,101,2.5,3888,97.5,3759,94.2,14,0.4,3,0.1,28,0.7,0,0,0,0,84,2.1,478.1
Urbana High School,Urbana SD 116,479.1,443.2,269,269,Illinois,40.104182,-88.2078193,1002 South Race Street,61801,Champaign County,Urbana,17019,"1002 South Race Street, Urbana, Illinois, 61801",5800,17019005800,2023,5800,Champaign County,Illinois,1370,50,128,922,270,2078,0,17,52,171,86,439,1313,3.6,9.3,67.3,19.7,0,0.8,2.5,8.2,4.1,21.1,63.2,1487,73365,118703,3920,474,12.1,3446,87.9,2711,69.2,183,4.7,0,0,347,8.9,0,0,16,0.4,189,4.8,479.1
Rantoul Twp High School,Rantoul Township HSD 193,431.7,408.1,173,173,Illinois,40.3089562,-88.1497242,200 South Sheldon Street,61866,Champaign County,Rantoul,17019,"200 South Sheldon Street, Rantoul, Illinois, 61866",10204,17019010204,2023,10204,Champaign County,Illinois,448,38,162,248,0,3126,112,175,1399,772,269,249,150,8.5,36.2,55.4,0,3.6,5.6,44.8,24.7,8.6,8,4.8,2028,54773,70406,4727,1142,24.2,3585,75.8,2705,57.2,605,12.8,8,0.2,23,0.5,0,0,0,0,244,5.2,431.7
St Joseph-Ogden High School,St Joseph Ogden CHSD 305,527.6,508.9,99,99,Illinois,40.1144598,-88.0425008,301 North Main Street,61873,Champaign County,Saint Joseph,17019,"301 North Main Street, Saint Joseph, Illinois, 61873",10701,17019010701,2023,10701,Champaign County,Illinois,280,49,107,104,20,2584,9,27,518,527,525,585,393,17.5,38.2,37.1,7.1,0.3,1,20,20.4,20.3,22.6,15.2,1534,113625,125162,3864,62,1.6,3802,98.4,3573,92.5,2,0.1,7,0.2,79,2,0,0,0,0,141,3.6,527.6
GCMS High School,Gibson City-Melvin-Sibley CUSD 5,493.9,477.6,74,74,Illinois,40.4747702,-88.3744647,815 North Church Street,60936,Ford County,Gibson City,17053,"815 North Church Street, Gibson City, Illinois, 60936",962000,17053962000,2023,962000,Ford County,Illinois,250,36,90,92,32,2694,120,235,1100,551,274,257,157,14.4,36,36.8,12.8,4.5,8.7,40.8,20.5,10.2,9.5,5.8,1636,50443,73823,3654,324,8.9,3330,91.1,3096,84.7,48,1.3,0,0,22,0.6,0,0,0,0,164,4.5,493.9
Paxton-Buckley-Loda High School,Paxton-Buckley-Loda CUD 10,464.2,456.3,92,92,Illinois,40.460897,-88.108417,700 West Orleans Street,60957,Ford County,Paxton,17053,"700 West Orleans Street, Paxton, Illinois, 60957",961800,17053961800,2023,961800,Ford County,Illinois,344,40,247,57,0,3035,50,129,981,872,339,486,178,11.6,71.8,16.6,0,1.6,4.3,32.3,28.7,11.2,16,5.9,1909,60013,72418,4368,125,2.9,4243,97.1,4128,94.5,15,0.3,0,0,0,0,0,0,0,0,100,2.3,464.2
Marshall High School,Marshall CUSD 2C,483.5,457.3,75,75,Illinois,39.3969783,-87.7001647,806 North 6th Street,62441,Clark County,Marshall,17023,"806 North 6th Street, Marshall, Illinois, 62441",60200,17023060200,2023,60200,Clark County,Illinois,324,43,146,105,30,3082,68,97,1257,558,393,405,304,13.3,45.1,32.4,9.3,2.2,3.1,40.8,18.1,12.8,13.1,9.9,1902,69750,80051,4176,35,0.8,4141,99.2,3974,95.2,42,1,0,0,1,0,0,0,0,0,124,3,483.5
Martinsville Jr-Sr High School,Martinsville CUSD 3C,401.1,387.2,18,18,Illinois,39.3329002,-87.8871729,255 West Cumberland Street,62442,Clark County,Martinsville,17023,"255 West Cumberland Street, Martinsville, Illinois, 62442",60300,17023060300,2023,60300,Clark County,Illinois,308,48,68,140,52,3475,60,225,1281,765,579,406,159,15.6,22.1,45.5,16.9,1.7,6.5,36.9,22,16.7,11.7,4.6,2221,58601,72142,4967,167,3.4,4800,96.6,4712,94.9,50,1,5,0.1,9,0.2,0,0,0,0,24,0.5,401.1
Casey-Westfield Jr/Sr HS,Casey-Westfield CUSD 4C,492.7,492.7,52,52,Illinois,39.3001022,-87.9878768,401 East Main Street,62420,Clark County,Casey,17023,"401 East Main Street, Casey, Illinois, 62420",60300,17023060300,2023,60300,Clark County,Illinois,308,48,68,140,52,3475,60,225,1281,765,579,406,159,15.6,22.1,45.5,16.9,1.7,6.5,36.9,22,16.7,11.7,4.6,2221,58601,72142,4967,167,3.4,4800,96.6,4712,94.9,50,1,5,0.1,9,0.2,0,0,0,0,24,0.5,492.7
Charleston High School,Charleston CUSD 1,456,425.4,168,168,Illinois,39.485302,-88.1645073,1615 Lincoln Avenue,61920,Coles County,Charleston,17029,"1615 Lincoln Avenue, Charleston, Illinois, 61920",701,17029000701,2023,701,Coles County,Illinois,395,41,208,73,73,1736,0,33,269,446,120,461,407,10.4,52.7,18.5,18.5,0,1.9,15.5,25.7,6.9,26.6,23.4,1280,83214,98749,2433,116,4.8,2317,95.2,2132,87.6,33,1.4,0,0,42,1.7,0,0,46,1.9,64,2.6,456
Mattoon High School,Mattoon CUSD 2,461.4,431.6,203,203,Illinois,39.4745412,-88.3868799,2521 Walnut Avenue,61938,Coles County,Mattoon,17029,"2521 Walnut Avenue, Mattoon, Illinois, 61938",1200,17029001200,2023,1200,Coles County,Illinois,127,6,66,39,16,2288,104,191,691,509,336,303,154,4.7,52,30.7,12.6,4.5,8.3,30.2,22.2,14.7,13.2,6.7,1410,58042,67467,3085,167,5.4,2918,94.6,2848,92.3,20,0.6,0,0,0,0,0,0,0,0,50,1.6,461.4
Oakland High School,Oakland CUSD 5,431.6,427.4,19,19,Illinois,39.6581103,-88.0214501,310 North Teeter Street,61943,Coles County,Oakland,17029,"310 North Teeter Street, Oakland, Illinois, 61943",100,17029000100,2023,100,Coles County,Illinois,111,10,67,25,9,1840,30,89,723,420,220,259,99,9,60.4,22.5,8.1,1.6,4.8,39.3,22.8,12,14.1,5.4,1140,59914,83014,2564,28,1.1,2536,98.9,2489,97.1,8,0.3,0,0,0,0,0,0,0,0,39,1.5,431.6
Neoga Jr/Sr High School,Neoga CUSD 3,491,473.9,41,41,Illinois,39.3195975,-88.4419366,790 East 7th Street,62447,Cumberland County,Neoga,17035,"790 East 7th Street, Neoga, Illinois, 62447",972600,17035972600,2023,972600,Cumberland County,Illinois,255,18,98,89,50,2917,60,72,1038,646,496,445,160,7.1,38.4,34.9,19.6,2.1,2.5,35.6,22.1,17,15.3,5.5,1615,81146,96183,4083,0,0,4083,100,3894,95.4,2,0,0,0,0,0,0,0,0,0,187,4.6,491
Cumberland High School,Cumberland CUSD 77,470,459.5,78,78,Illinois,39.2573204,-88.193901,1496 Illinois 121,62428,Cumberland County,Greenup,17035,"1496 Illinois 121, Greenup, Illinois, 62428",972500,17035972500,2023,972500,Cumberland County,Illinois,227,16,75,136,0,2304,44,128,936,463,341,194,198,7,33,59.9,0,1.9,5.6,40.6,20.1,14.8,8.4,8.6,1333,73102,97447,3470,33,1,3437,99,3299,95.1,13,0.4,0,0,0,0,0,0,0,0,125,3.6,470
Tuscola High School,Tuscola CUSD 301,492.2,451,59,59,Illinois,39.7956964,-88.274153,500 South Prairie Street,61953,Douglas County,Tuscola,17041,"500 South Prairie Street, Tuscola, Illinois, 61953",952200,17041952200,2023,952200,Douglas County,Illinois,467,10,168,270,19,3182,25,49,1037,727,661,439,244,2.1,36,57.8,4.1,0.8,1.5,32.6,22.8,20.8,13.8,7.7,2091,68818,89264,4652,47,1,4605,99,4232,91,160,3.4,0,0,59,1.3,0,0,0,0,154,3.3,492.2
Villa Grove High School,Villa Grove CUSD 302,471.6,439.4,52,52,Illinois,39.8686019,-88.1615292,400 North Sycamore Street,61956,Douglas County,Villa Grove,17041,"400 North Sycamore Street, Villa Grove, Illinois, 61956",952100,17041952100,2023,952100,Douglas County,Illinois,248,60,52,119,17,2846,35,109,935,729,333,572,133,24.2,21,48,6.9,1.2,3.8,32.9,25.6,11.7,20.1,4.7,1686,72669,80443,4052,49,1.2,4003,98.8,3968,97.9,0,0,0,0,16,0.4,0,0,0,0,19,0.5,471.6
Arthur-Lovington-Atwood-Hammond High School,Arthur CUSD 305,459.4,441.3,54,54,Illinois,39.806384,-88.4648503,222 West Magnolia Street,61913,Piatt County,Atwood,17147,"222 West Magnolia Street, Atwood, Illinois, 61913",954700,17147954700,2023,954700,Piatt County,Illinois,252,42,167,43,0,2216,22,68,1013,483,220,296,114,16.7,66.3,17.1,0,1,3.1,45.7,21.8,9.9,13.4,5.1,1322,72667,82116,3191,35,1.1,3156,98.9,3103,97.2,26,0.8,0,0,6,0.2,0,0,4,0.1,17,0.5,459.4
Arcola High School,Arcola CUSD 306,457.4,435.7,35,35,Illinois,39.6830188,-88.3166355,351 West Washington Street,61910,Douglas County,Arcola,17041,"351 West Washington Street, Arcola, Illinois, 61910",952400,17041952400,2023,952400,Douglas County,Illinois,333,119,132,68,14,2361,234,223,797,419,270,230,188,35.7,39.6,20.4,4.2,9.9,9.4,33.8,17.7,11.4,9.7,8,1202,81667,85462,3518,1357,38.6,2161,61.4,2058,58.5,58,1.6,12,0.3,7,0.2,0,0,9,0.3,17,0.5,457.4
Shiloh High School,Shiloh CUSD 1,417.7,402.7,26,26,Illinois,39.756527,-87.8942451,,N/A,Edgar County,N/A,17045,,70200,17045070200,2023,70200,Edgar County,Illinois,69,4,37,28,0,1256,31,69,521,263,163,129,80,5.8,53.6,40.6,0,2.5,5.5,41.5,20.9,13,10.3,6.4,738,60929,75692,1673,50,3,1623,97,1602,95.8,0,0,0,0,5,0.3,0,0,0,0,16,1,417.7
Kansas High School,Kansas CUSD 3,446.9,420,13,13,Illinois,39.5504716,-87.9405347,310 South Front Street,61933,Edgar County,Kansas,17045,"310 South Front Street, Kansas, Illinois, 61933",70500,17045070500,2023,70500,Edgar County,Illinois,154,8,89,37,20,2476,59,121,895,447,340,462,152,5.2,57.8,24,13,2.4,4.9,36.1,18.1,13.7,18.7,6.1,1448,66795,90844,3391,73,2.2,3318,97.8,3271,96.5,17,0.5,0,0,14,0.4,0,0,0,0,16,0.5,446.9
Chrisman High School,Edgar County CUD 6,442.6,422.2,23,23,Illinois,39.8098983,-87.6738204,23231 Illinois 1,61924,Edgar County,Chrisman,17045,"23231 Illinois 1, Chrisman, Illinois, 61924",70100,17045070100,2023,70100,Edgar County,Illinois,113,8,49,26,30,1760,36,73,637,411,221,310,72,7.1,43.4,23,26.5,2,4.1,36.2,23.4,12.6,17.6,4.1,946,70750,81061,2555,0,0,2555,100,2484,97.2,9,0.4,0,0,9,0.4,0,0,0,0,53,2.1,442.6
Paris Cooperative High School,Paris Cooperative High School,466.9,454.9,104,104,Illinois,39.6450685,-87.7020821,14040 East 1200th Road,61944,Edgar County,Paris,17045,"14040 East 1200th Road, Paris, Illinois, 61944",70300,17045070300,2023,70300,Edgar County,Illinois,285,0,149,96,40,2986,136,95,1536,513,215,406,85,0,52.3,33.7,14,4.6,3.2,51.4,17.2,7.2,13.6,2.8,1932,51260,73833,4022,64,1.6,3958,98.4,3876,96.4,29,0.7,0,0,0,0,5,0.1,0,0,48,1.2,466.9
Sullivan High School,Sullivan CUSD 300,489.6,460.3,74,74,Illinois,39.6062461,-88.6083,725 North Main Street,61951,Moultrie County,Sullivan,17139,"725 North Main Street, Sullivan, Illinois, 61951",977200,17139977200,2023,977200,Moultrie County,Illinois,230,60,117,31,22,2801,33,129,1224,687,273,278,177,26.1,50.9,13.5,9.6,1.2,4.6,43.7,24.5,9.7,9.9,6.3,1706,61615,70129,4014,38,0.9,3976,99.1,3834,95.5,93,2.3,0,0,0,0,0,0,0,0,49,1.2,489.6
Okaw Valley High School,Okaw Valley CUSD 302,447.7,418.3,47,47,Illinois,39.6406801,-88.7417966,709 South Saint John Street,61914,Moultrie County,Bethany,17139,"709 South Saint John Street, Bethany, Illinois, 61914",977100,17139977100,2023,977100,Moultrie County,Illinois,245,66,66,83,30,2080,37,63,631,369,321,471,188,26.9,26.9,33.9,12.2,1.8,3,30.3,17.7,15.4,22.6,9,1237,76587,96737,3145,20,0.6,3125,99.4,3081,98,0,0,0,0,0,0,0,0,0,0,44,1.4,447.7
Cowden-Herrick Jr/Sr High School,Cowden-Herrick CUSD 3A,424.5,423.6,22,22,Illinois,39.2533622,-88.9222277,,N/A,Shelby County,N/A,17173,,959600,17173959600,2023,959600,Shelby County,Illinois,225,53,58,84,30,2307,21,105,1185,361,266,288,81,23.6,25.8,37.3,13.3,0.9,4.6,51.4,15.6,11.5,12.5,3.5,1265,90913,91277,3083,54,1.8,3029,98.2,2950,95.7,3,0.1,0,0,6,0.2,0,0,0,0,70,2.3,424.5
Shelbyville High School,Shelbyville CUSD 4,486.6,476.5,92,92,Illinois,39.413757,-88.8045411,1001 West North 6th Street,62565,Shelby County,Shelbyville,17173,"1001 West North 6th Street, Shelbyville, Illinois, 62565",959300,17173959300,2023,959300,Shelby County,Illinois,311,2,127,157,25,3508,110,105,1367,810,505,369,242,0.6,40.8,50.5,8,3.1,3,39,23.1,14.4,10.5,6.9,2305,55985,66805,4720,43,0.9,4677,99.1,4577,97,11,0.2,20,0.4,10,0.2,0,0,0,0,59,1.3,486.6
Stewardson-Strasburg High School,Stewardson-Strasburg CUD 5A,503.5,494.2,31,31,Illinois,39.3019645,-88.6181679,2806 600 North,62465,Shelby County,Strasburg,17173,"2806 600 North, Strasburg, Illinois, 62465",959500,17173959500,2023,959500,Shelby County,Illinois,202,44,78,80,0,2632,26,92,1261,479,288,404,82,21.8,38.6,39.6,0,1,3.5,47.9,18.2,10.9,15.3,3.1,1430,67745,81563,3587,9,0.3,3578,99.7,3523,98.2,0,0,0,0,32,0.9,0,0,2,0.1,21,0.6,503.5
Central A & M High School,Central A & M CUD 21,453.4,422.7,59,59,Illinois,39.6316906,-89.0170657,229 East Pine Street,62550,Shelby County,Moweaqua,17173,"229 East Pine Street, Moweaqua, Illinois, 62550",959100,17173959100,2023,959100,Shelby County,Illinois,294,94,61,104,35,2403,20,145,1034,550,232,349,73,32,20.7,35.4,11.9,0.8,6,43,22.9,9.7,14.5,3,1379,68140,80743,3593,87,2.4,3506,97.6,3369,93.8,10,0.3,42,1.2,12,0.3,0,0,23,0.6,50,1.4,453.4
Clay City High School,Clay City CUSD 10,447.4,422.1,19,19,Illinois,38.6838586,-88.3514104,607 Walnut Street Southeast,62824,Clay County,Clay City,17025,"607 Walnut Street Southeast, Clay City, Illinois, 62824",972200,17025972200,2023,972200,Clay County,Illinois,217,15,78,110,14,1884,31,122,779,337,307,275,33,6.9,35.9,50.7,6.5,1.6,6.5,41.3,17.9,16.3,14.6,1.8,1107,72557,115293,2920,5,0.2,2915,99.8,2744,94,11,0.4,1,0,1,0,0,0,24,0.8,134,4.6,447.4
North Clay Community High School,North Clay CUSD 25,440,417.1,42,42,Illinois,38.7667577,-88.5100074,953 Kinmundy Road,62858,Clay County,Louisville,17025,"953 Kinmundy Road, Louisville, Illinois, 62858",972000,17025972000,2023,972000,Clay County,Illinois,143,48,59,36,0,2097,188,186,841,389,251,159,83,33.6,41.3,25.2,0,9,8.9,40.1,18.6,12,7.6,4,1142,52143,65224,2907,36,1.2,2871,98.8,2794,96.1,34,1.2,0,0,0,0,0,0,0,0,43,1.5,440
Flora High School,Flora CUSD 35,468.4,428.3,90,90,Illinois,38.663165,-88.482466,600 South Locust Street,62839,Clay County,Flora,17025,"600 South Locust Street, Flora, Illinois, 62839",972100,17025972100,2023,972100,Clay County,Illinois,432,63,52,317,0,3579,165,267,1127,643,729,340,308,14.6,12,73.4,0,4.6,7.5,31.5,18,20.4,9.5,8.6,2247,52682,69567,5033,8,0.2,5025,99.8,4739,94.2,37,0.7,8,0.2,39,0.8,0,0,0,0,202,4,468.4
Hutsonville High School,Hutsonville CUSD 1,437.4,409.6,27,27,Illinois,39.1074859,-87.6657271,500 West Clover Street,62433,Crawford County,Hutsonville,17033,"500 West Clover Street, Hutsonville, Illinois, 62433",880100,17033880100,2023,880100,Crawford County,Illinois,159,12,108,34,5,1883,38,78,655,383,343,214,172,7.5,67.9,21.4,3.1,2,4.1,34.8,20.3,18.2,11.4,9.1,1081,74787,112633,2538,23,0.9,2515,99.1,2357,92.9,7,0.3,0,0,18,0.7,0,0,18,0.7,115,4.5,437.4
Robinson High School,Robinson CUSD 2,483,444.6,125,125,Illinois,39.0186286,-87.7397281,2000 North Cross Street,62454,Crawford County,Robinson,17033,"2000 North Cross Street, Robinson, Illinois, 62454",880300,17033880300,2023,880300,Crawford County,Illinois,220,5,91,91,33,2255,89,84,513,326,306,681,256,2.3,41.4,41.4,15,3.9,3.7,22.7,14.5,13.6,30.2,11.4,1363,71656,88431,3075,47,1.5,3028,98.5,2974,96.7,5,0.2,0,0,6,0.2,0,0,4,0.1,39,1.3,483
Palestine High School,Palestine CUSD 3,451.1,440.7,28,28,Illinois,39.0032905,-87.6124193,102 North Main Street,62451,Crawford County,Palestine,17033,"102 North Main Street, Palestine, Illinois, 62451",880500,17033880500,2023,880500,Crawford County,Illinois,211,50,62,74,25,2806,160,473,814,681,408,172,98,23.7,29.4,35.1,11.8,5.7,16.9,29,24.3,14.5,6.1,3.5,987,61971,81707,3492,143,4.1,3349,95.9,2744,78.6,536,15.3,1,0,11,0.3,0,0,0,0,57,1.6,451.1
Oblong High School,Oblong CUSD 4,483.3,450,33,33,Illinois,38.9958292,-87.9092431,700 South Range Street,62449,Crawford County,Oblong,17033,"700 South Range Street, Oblong, Illinois, 62449",880200,17033880200,2023,880200,Crawford County,Illinois,280,36,104,118,22,2637,43,158,860,626,489,326,135,12.9,37.1,42.1,7.9,1.6,6,32.6,23.7,18.5,12.4,5.1,1610,66094,76924,3734,10,0.3,3724,99.7,3479,93.2,37,1,1,0,1,0,0,0,0,0,206,5.5,483.3
Newton Comm High School,Jasper County CUD 1,453.2,454.4,93,93,Illinois,38.9897041,-88.1742646,201 West End Avenue,62448,Jasper County,Newton,17079,"201 West End Avenue, Newton, Illinois, 62448",977400,17079977400,2023,977400,Jasper County,Illinois,243,17,134,92,0,1963,45,185,752,332,270,284,95,7,55.1,37.9,0,2.3,9.4,38.3,16.9,13.8,14.5,4.8,1233,58750,70569,2745,24,0.9,2721,99.1,2646,96.4,8,0.3,0,0,0,0,0,0,0,0,67,2.4,453.2
Red Hill Jr/Sr High School,Red Hill CUSD 10,481.8,434.4,68,68,Illinois,38.7129393,-87.7574203,908 Church Street,62417,Lawrence County,Bridgeport,17101,"908 Church Street, Bridgeport, Illinois, 62417",880900,17101880900,2023,880900,Lawrence County,Illinois,174,16,89,61,8,1517,36,158,655,274,221,111,62,9.2,51.1,35.1,4.6,2.4,10.4,43.2,18.1,14.6,7.3,4.1,879,49659,69612,2231,68,3,2163,97,2052,92,67,3,0,0,0,0,0,0,0,0,44,2,481.8
Lawrenceville High School,Lawrence County CUD 20,476.1,420.8,49,49,Illinois,38.7230644,-87.6987762,2200 James Street,62439,Lawrence County,Lawrenceville,17101,"2200 James Street, Lawrenceville, Illinois, 62439",881100,17101881100,2023,881100,Lawrence County,Illinois,194,22,138,34,0,2736,96,281,681,670,393,215,400,11.3,71.1,17.5,0,3.5,10.3,24.9,24.5,14.4,7.9,14.6,1364,48901,71490,3377,0,0,3377,100,2908,86.1,87,2.6,2,0.1,1,0,0,0,10,0.3,369,10.9,476.1
Richland County High School,Richland County CUSD 1,479,459.4,144,144,Illinois,38.7343189,-88.0721355,1200 East Laurel Street,62450,Richland County,Olney,17159,"1200 East Laurel Street, Olney, Illinois, 62450",978100,17159978100,2023,978100,Richland County,Illinois,294,74,149,71,0,2826,48,114,904,648,399,482,231,25.2,50.7,24.1,0,1.7,4,32,22.9,14.1,17.1,8.2,1542,66042,79446,4238,33,0.8,4205,99.2,4024,95,10,0.2,1,0,11,0.3,5,0.1,3,0.1,151,3.6,479
Carlyle High School,Carlyle CUSD 1,466.6,462.7,71,70,Illinois,38.6194243,-89.3738741,1461 12th Street,62231,Clinton County,Carlyle,17027,"1461 12th Street, Carlyle, Illinois, 62231",900403,17027900403,2023,900403,Clinton County,Illinois,427,83,184,160,0,2571,101,28,797,521,417,515,192,19.4,43.1,37.5,0,3.9,1.1,31,20.3,16.2,20,7.5,1558,70761,95831,3651,21,0.6,3630,99.4,3364,92.1,89,2.4,2,0.1,0,0,0,0,0,0,175,4.8,466.6
Wesclin Sr High School,Wesclin CUSD 3,499.7,496.1,94,94,Illinois,38.5698719,-89.6933216,699 Wesclin Road,62293,Clinton County,Trenton,17027,"699 Wesclin Road, Trenton, Illinois, 62293",900602,17027900602,2023,900602,Clinton County,Illinois,522,105,92,268,57,4729,224,89,1519,1030,636,902,329,20.1,17.6,51.3,10.9,4.7,1.9,32.1,21.8,13.4,19.1,7,2686,92158,107406,6804,386,5.7,6418,94.3,6171,90.7,121,1.8,4,0.1,40,0.6,0,0,0,0,82,1.2,499.7
Central Comm High School,Central CHSD 71,497.8,508.4,148,148,Illinois,38.6100131,-89.5120084,,N/A,Clinton County,N/A,17027,,900300,17027900300,2023,900300,Clinton County,Illinois,583,65,70,254,194,4947,160,228,1443,869,974,870,403,11.1,12,43.6,33.3,3.2,4.6,29.2,17.6,19.7,17.6,8.1,2944,78000,126848,6992,397,5.7,6595,94.3,6450,92.2,11,0.2,32,0.5,40,0.6,0,0,0,0,62,0.9,497.8
Waltonville High School,Waltonville CUSD 1,478.6,454.8,21,21,Illinois,38.2130759,-89.0505376,804 West Knob Street,62894,Jefferson County,Waltonville,17081,"804 West Knob Street, Waltonville, Illinois, 62894",50300,17081050300,2023,50300,Jefferson County,Illinois,298,39,100,129,30,2916,33,148,894,780,442,407,212,13.1,33.6,43.3,10.1,1.1,5.1,30.7,26.7,15.2,14,7.3,1679,71808,87616,4209,49,1.2,4160,98.8,4001,95.1,22,0.5,4,0.1,22,0.5,0,0,0,0,111,2.6,478.6
Mount Vernon High School,Mt Vernon Twp HSD 201,454.5,424.3,279,282,Illinois,38.3172714,-88.9031201,850-900 Broadway Street,62864,Jefferson County,Mount Vernon,17081,"850-900 Broadway Street, Mount Vernon, Illinois, 62864",51000,17081051000,2023,51000,Jefferson County,Illinois,120,33,55,32,0,797,21,76,337,155,184,16,8,27.5,45.8,26.7,0,2.6,9.5,42.3,19.4,23.1,2,1,464,41250,60773,1244,160,12.9,1084,87.1,546,43.9,472,37.9,0,0,0,0,0,0,0,0,66,5.3,454.5
Woodlawn High School,Woodlawn Unit School District 209,478.9,427.8,46,46,Illinois,38.3300496,-89.0325693,,62898,Jefferson County,Woodlawn,17081,,50300,17081050300,2023,50300,Jefferson County,Illinois,298,39,100,129,30,2916,33,148,894,780,442,407,212,13.1,33.6,43.3,10.1,1.1,5.1,30.7,26.7,15.2,14,7.3,1679,71808,87616,4209,49,1.2,4160,98.8,4001,95.1,22,0.5,4,0.1,22,0.5,0,0,0,0,111,2.6,478.9
Webber High School,Bluford Unit School District 318,462.7,415,26,26,Illinois,38.3241253,-88.7411515,310 South Elm Street,62814,Jefferson County,Bluford,17081,"310 South Elm Street, Bluford, Illinois, 62814",50200,17081050200,2023,50200,Jefferson County,Illinois,157,68,41,44,4,2094,144,150,844,552,187,165,52,43.3,26.1,28,2.5,6.9,7.2,40.3,26.4,8.9,7.9,2.5,1210,56667,66895,3035,22,0.7,3013,99.3,2717,89.5,0,0,43,1.4,13,0.4,0,0,0,0,240,7.9,462.7
Patoka Sr High School,Patoka CUSD 100,454.6,402.9,24,24,Illinois,38.7553259,-89.0953417,,62875,Marion County,Patoka,17121,,951700,17121951700,2023,951700,Marion County,Illinois,161,12,42,95,12,1788,30,118,480,412,242,368,138,7.5,26.1,59,7.5,1.7,6.6,26.8,23,13.5,20.6,7.7,1039,82898,99062,2512,40,1.6,2472,98.4,2435,96.9,0,0,0,0,4,0.2,0,0,3,0.1,30,1.2,454.6
Centralia High School,Centralia HSD 200,457.6,437.4,199,199,Illinois,38.5185957,-89.103963,2100 East Calumet Street,62801,Marion County,Centralia,17121,"2100 East Calumet Street, Centralia, Illinois, 62801",952400,17121952400,2023,952400,Marion County,Illinois,207,11,69,113,14,2870,22,182,777,948,226,423,292,5.3,33.3,54.6,6.8,0.8,6.3,27.1,33,7.9,14.7,10.2,1691,73593,87266,3971,223,5.6,3748,94.4,3108,78.3,422,10.6,1,0,67,1.7,0,0,58,1.5,92,2.3,457.6
Sandoval Sr High School,Sandoval CUSD 501,414.3,407,23,23,Illinois,38.6286632,-89.1134166,,N/A,Marion County,N/A,17121,,951800,17121951800,2023,951800,Marion County,Illinois,94,18,35,39,2,1550,83,265,615,365,104,73,45,19.1,37.2,41.5,2.1,5.4,17.1,39.7,23.5,6.7,4.7,2.9,857,52598,60672,2105,69,3.3,2036,96.7,1920,91.2,19,0.9,0,0,18,0.9,0,0,11,0.5,68,3.2,414.3
Salem Community High School,Salem CHSD 600,487.6,465.4,177,177,Illinois,38.6375082,-88.9429682,1200 North Broadway,62881,Marion County,Salem,17121,"1200 North Broadway, Salem, Illinois, 62881",952000,17121952000,2023,952000,Marion County,Illinois,191,22,100,61,8,3072,108,83,1251,736,415,355,124,11.5,52.4,31.9,4.2,3.5,2.7,40.7,24,13.5,11.6,4,1796,64141,88317,4473,8,0.2,4465,99.8,4022,89.9,168,3.8,0,0,66,1.5,0,0,128,2.9,81,1.8,487.6
Odin Attendance Center 9-12,Odin PSD 722,418,396.7,15,15,Illinois,40.6331249,-89.3985283,,N/A,Tazewell County,N/A,17179,,21701,17179021701,2023,21701,Tazewell County,Illinois,389,34,157,153,45,3996,14,93,1076,1032,476,912,393,8.7,40.4,39.3,11.6,0.4,2.3,26.9,25.8,11.9,22.8,9.8,2339,101410,111230,5851,44,0.8,5807,99.2,5709,97.6,14,0.2,0,0,10,0.2,0,0,0,0,74,1.3,418
Okawville Jr/Sr High School,West Washington Co CUD 10,504.7,460.4,45,45,Illinois,38.4265609,-89.5478006,400 South Hanover Street,62271,Washington County,Okawville,17189,"400 South Hanover Street, Okawville, Illinois, 62271",950200,17189950200,2023,950200,Washington County,Illinois,246,23,140,74,9,2666,90,137,853,437,357,499,293,9.3,56.9,30.1,3.7,3.4,5.1,32,16.4,13.4,18.7,11,1472,93333,102937,3638,83,2.3,3555,97.7,3480,95.7,2,0.1,11,0.3,18,0.5,0,0,0,0,44,1.2,504.7
Nashville Comm High School,Nashville CHSD 99,502.4,475,98,98,Illinois,38.3569814,-89.3606298,,N/A,Washington County,N/A,17189,,950300,17189950300,2023,950300,Washington County,Illinois,198,0,145,53,0,2183,42,97,721,496,386,293,148,0,73.2,26.8,0,1.9,4.4,33,22.7,17.7,13.4,6.8,1344,62155,67879,3040,8,0.3,3032,99.7,2930,96.4,33,1.1,0,0,6,0.2,0,0,0,0,63,2.1,502.4
Amundsen High School,City of Chicago SD 299,497,483.9,362,362,Illinois,41.9757105,-87.6800944,5110 North Damen Avenue,60625,Cook County,Chicago,17031,"5110 North Damen Avenue, Chicago, Illinois, 60625",40402,17031040402,2023,40402,Cook County,Illinois,165,0,0,79,86,3789,50,34,295,241,171,2189,809,0,0,47.9,52.1,1.3,0.9,7.8,6.4,4.5,57.8,21.4,2494,94541,125058,4224,721,17.1,3503,82.9,3121,73.9,128,3,0,0,107,2.5,0,0,0,0,147,3.5,497
Bogan High School,City of Chicago SD 299,401.1,386.9,163,163,Illinois,41.748772,-87.7208789,3939 West 79th Street,60652,Cook County,Chicago,17031,"3939 West 79th Street, Chicago, Illinois, 60652",700401,17031700401,2023,700401,Cook County,Illinois,726,118,270,294,44,4246,429,252,1135,1226,382,463,359,16.3,37.2,40.5,6.1,10.1,5.9,26.7,28.9,9,10.9,8.5,1907,94313,105066,6376,2515,39.4,3861,60.6,231,3.6,3470,54.4,0,0,23,0.4,0,0,11,0.2,126,2,401.1
Carver Military Academy HS,City of Chicago SD 299,450.9,420.4,77,77,Illinois,41.6566007,-87.5894662,13100 South Doty Avenue,60827,Cook County,Chicago,17031,"13100 South Doty Avenue, Chicago, Illinois, 60827",540102,17031540102,2023,540102,Cook County,Illinois,198,27,113,58,0,1784,33,260,647,606,86,82,70,13.6,57.1,29.3,0,1.8,14.6,36.3,34,4.8,4.6,3.9,1285,24583,45448,3517,0,0,3517,100,14,0.4,3488,99.2,0,0,0,0,0,0,0,0,15,0.4,450.9
Farragut Career Academy HS,City of Chicago SD 299,404.2,391.8,143,144,Illinois,41.8493963,-87.7084021,2345 South Christiana Avenue,60623,Cook County,Chicago,17031,"2345 South Christiana Avenue, Chicago, Illinois, 60623",300800,17031300800,2023,300800,Cook County,Illinois,438,133,265,40,0,2236,532,215,1031,142,105,118,93,30.4,60.5,9.1,0,23.8,9.6,46.1,6.4,4.7,5.3,4.2,1246,31161,47172,4177,3916,93.8,261,6.2,162,3.9,0,0,0,0,0,0,0,0,99,2.4,0,0,404.2
Fenger Academy High School,City of Chicago SD 299,392.9,385.6,63,63,Illinois,41.6897069,-87.63784,11220 South Wallace Street,60628,Cook County,Chicago,17031,"11220 South Wallace Street, Chicago, Illinois, 60628",491200,17031491200,2023,491200,Cook County,Illinois,142,45,86,0,11,1340,46,168,494,290,138,122,82,31.7,60.6,0,7.7,3.4,12.5,36.9,21.6,10.3,9.1,6.1,620,60417,70468,1732,53,3.1,1679,96.9,26,1.5,1616,93.3,0,0,0,0,0,0,0,0,37,2.1,392.9
Foreman High School,City of Chicago SD 299,386.6,385.7,135,135,Illinois,41.93967,-87.7539406,3235 North Leclaire Avenue,60641,Cook County,Chicago,17031,"3235 North Leclaire Avenue, Chicago, Illinois, 60641",151001,17031151001,2023,151001,Cook County,Illinois,214,13,97,83,21,1725,201,181,354,314,248,335,92,6.1,45.3,38.8,9.8,11.7,10.5,20.5,18.2,14.4,19.4,5.3,887,91992,97583,2642,1808,68.4,834,31.6,695,26.3,0,0,0,0,130,4.9,0,0,0,0,9,0.3,386.6
Back of The Yards IB HS,City of Chicago SD 299,462.6,469.3,242,243,Illinois,41.8561467,-87.658113,,N/A,Cook County,Chicago,17031,,310600,17031310600,2023,310600,Cook County,Illinois,524,0,143,173,208,3892,285,302,1012,587,99,1012,595,0,27.3,33,39.7,7.3,7.8,26,15.1,2.5,26,15.3,2523,75604,77648,5136,2900,56.5,2236,43.5,1533,29.8,228,4.4,0,0,349,6.8,0,0,80,1.6,46,0.9,462.6
Gage Park High School,City of Chicago SD 299,397.4,369.4,93,93,Illinois,41.7909828,-87.6895972,5630 South Rockwell Street,60629,Cook County,Chicago,17031,"5630 South Rockwell Street, Chicago, Illinois, 60629",835100,17031835100,2023,835100,Cook County,Illinois,713,82,362,198,71,2689,393,264,992,481,237,237,85,11.5,50.8,27.8,10,14.6,9.8,36.9,17.9,8.8,8.8,3.2,1440,46414,67587,4470,3060,68.5,1410,31.5,183,4.1,1151,25.7,0,0,2,0,0,0,0,0,74,1.7,397.4
Harlan Community Academy HS,City of Chicago SD 299,375.1,363.1,67,67,Illinois,41.7183438,-87.6209035,9652 South Michigan Avenue,60628,Cook County,Chicago,17031,"9652 South Michigan Avenue, Chicago, Illinois, 60628",490500,17031490500,2023,490500,Cook County,Illinois,235,0,29,181,25,1447,0,137,329,385,182,244,170,0,12.3,77,10.6,0,9.5,22.7,26.6,12.6,16.9,11.7,727,78319,92941,1758,14,0.8,1744,99.2,77,4.4,1642,93.4,0,0,19,1.1,0,0,0,0,6,0.3,375.1
Hirsch Metropolitan High School,City of Chicago SD 299,384.5,361.6,31,31,Illinois,41.753991,-87.601927,7740 South Ingleside Avenue,60619,Cook County,Chicago,17031,"7740 South Ingleside Avenue, Chicago, Illinois, 60619",691500,17031691500,2023,691500,Cook County,Illinois,95,21,29,45,0,1151,0,115,534,241,69,151,41,22.1,30.5,47.4,0,0,10,46.4,20.9,6,13.1,3.6,884,24101,36374,1794,88,4.9,1706,95.1,73,4.1,1632,91,0,0,0,0,1,0.1,0,0,0,0,384.5
Hubbard High School,City of Chicago SD 299,437.6,413.5,434,435,Illinois,41.7801987,-87.718647,6200 South Hamlin Avenue,60629,Cook County,Chicago,17031,"6200 South Hamlin Avenue, Chicago, Illinois, 60629",650100,17031650100,2023,650100,Cook County,Illinois,494,45,295,154,0,3073,435,128,1546,281,149,338,196,9.1,59.7,31.2,0,14.2,4.2,50.3,9.1,4.8,11,6.4,1413,65852,75010,4263,3575,83.9,688,16.1,648,15.2,26,0.6,0,0,1,0,0,0,0,0,13,0.3,437.6
Hyde Park Academy High School,City of Chicago SD 299,403.3,379.2,170,170,Illinois,41.7821873,-87.5872712,6220 South Stony Island Avenue,60637,Cook County,Chicago,17031,"6220 South Stony Island Avenue, Chicago, Illinois, 60637",420100,17031420100,2023,420100,Cook County,Illinois,204,0,77,101,26,1165,0,106,299,432,102,144,82,0,37.7,49.5,12.7,0,9.1,25.7,37.1,8.8,12.4,7,823,22215,39039,1586,0,0,1586,100,27,1.7,1513,95.4,0,0,7,0.4,0,0,0,0,39,2.5,403.3
Thomas Kelly College Preparatory,City of Chicago SD 299,425.9,415.1,418,419,Illinois,41.8183203,-87.6948589,4136 South California Avenue,60632,Cook County,Chicago,17031,"4136 South California Avenue, Chicago, Illinois, 60632",580501,17031580501,2023,580501,Cook County,Illinois,566,63,310,175,18,2972,499,203,1426,383,141,189,131,11.1,54.8,30.9,3.2,16.8,6.8,48,12.9,4.7,6.4,4.4,1627,52757,71667,4571,3664,80.2,907,19.8,455,10,31,0.7,0,0,314,6.9,0,0,0,0,107,2.3,425.9
Kelvyn Park High School,City of Chicago SD 299,401.7,380.2,64,64,Illinois,41.9272439,-87.7359639,4343 West Wrightwood Avenue,60639,Cook County,Chicago,17031,"4343 West Wrightwood Avenue, Chicago, Illinois, 60639",200200,17031200200,2023,200200,Cook County,Illinois,471,13,142,208,108,3224,733,212,840,626,88,518,207,2.8,30.1,44.2,22.9,22.7,6.6,26.1,19.4,2.7,16.1,6.4,1728,65599,76396,4634,3653,78.8,981,21.2,662,14.3,157,3.4,0,0,162,3.5,0,0,0,0,0,0,401.7
Kennedy High School,City of Chicago SD 299,443.4,429.3,320,320,Illinois,41.7902356,-87.7802853,6325 West 56th Street,60638,Cook County,Chicago,17031,"6325 West 56th Street, Chicago, Illinois, 60638",561100,17031561100,2023,561100,Cook County,Illinois,358,45,124,125,64,3985,201,313,1157,890,309,613,502,12.6,34.6,34.9,17.9,5,7.9,29,22.3,7.8,15.4,12.6,2184,107857,121521,5770,3090,53.6,2680,46.4,2430,42.1,118,2,0,0,57,1,0,0,75,1.3,0,0,443.4
Kenwood Academy High School,City of Chicago SD 299,498.2,474.6,525,527,Illinois,41.8033307,-87.5894153,5015 South Blackstone Avenue,60615,Cook County,Chicago,17031,"5015 South Blackstone Avenue, Chicago, Illinois, 60615",390700,17031390700,2023,390700,Cook County,Illinois,713,103,193,46,371,4149,44,107,288,665,194,1077,1774,14.4,27.1,6.5,52,1.1,2.6,6.9,16,4.7,26,42.8,3474,67610,95595,5616,90,1.6,5526,98.4,1507,26.8,2977,53,0,0,644,11.5,0,0,55,1,343,6.1,498.2
Lake View High School,City of Chicago SD 299,439.7,432,309,310,Illinois,41.9552954,-87.668809,4015 North Ashland Avenue,60613,Cook County,Chicago,17031,"4015 North Ashland Avenue, Chicago, Illinois, 60613",60100,17031060100,2023,60100,Cook County,Illinois,131,29,11,18,73,2189,9,9,95,74,79,1046,877,22.1,8.4,13.7,55.7,0.4,0.4,4.3,3.4,3.6,47.8,40.1,1283,145313,265373,3147,266,8.5,2881,91.5,2376,75.5,38,1.2,0,0,277,8.8,0,0,0,0,190,6,439.7
Lane Technical High School,City of Chicago SD 299,627.1,626.9,862,862,Illinois,41.945166,-87.6906541,2501 West Addison Street,60618,Cook County,Chicago,17031,"2501 West Addison Street, Chicago, Illinois, 60618",843700,17031843700,2023,843700,Cook County,Illinois,11,11,0,0,0,1720,65,31,74,177,55,751,567,100,0,0,0,3.8,1.8,4.3,10.3,3.2,43.7,33,1024,134000,233072,2381,237,10,2144,90,1616,67.9,120,5,0,0,94,3.9,0,0,0,0,314,13.2,627.1
Marshall Metropolitan High School,City of Chicago SD 299,375.1,364.1,49,49,Illinois,41.8790699,-87.706562,3250 West Adams Street,60624,Cook County,Chicago,17031,"3250 West Adams Street, Chicago, Illinois, 60624",271300,17031271300,2023,271300,Cook County,Illinois,156,11,69,76,0,603,43,55,171,148,53,63,70,7.1,44.2,48.7,0,7.1,9.1,28.4,24.5,8.8,10.4,11.6,333,45046,63883,880,44,5,836,95,9,1,751,85.3,0,0,8,0.9,0,0,0,0,68,7.7,375.1
Mather High School,City of Chicago SD 299,446.4,440.1,390,392,Illinois,41.9880646,-87.701245,5835 North Lincoln Avenue,60659,Cook County,Chicago,17031,"5835 North Lincoln Avenue, Chicago, Illinois, 60659",20701,17031020701,2023,20701,Cook County,Illinois,82,14,5,17,46,1305,99,39,176,113,55,375,448,17.1,6.1,20.7,56.1,7.6,3,13.5,8.7,4.2,28.7,34.3,748,101250,119915,1669,251,15,1418,85,908,54.4,114,6.8,5,0.3,309,18.5,0,0,0,0,82,4.9,446.4
Morgan Park High School,City of Chicago SD 299,414.9,393.3,251,251,Illinois,41.6922322,-87.6653314,1744 West Pryor Avenue,60643,Cook County,Chicago,17031,"1744 West Pryor Avenue, Chicago, Illinois, 60643",750200,17031750200,2023,750200,Cook County,Illinois,110,0,64,41,5,2349,4,42,288,870,243,474,428,0,58.2,37.3,4.5,0.2,1.8,12.3,37,10.3,20.2,18.2,1466,79464,90116,3230,223,6.9,3007,93.1,796,24.6,2035,63,0,0,156,4.8,0,0,0,0,20,0.6,414.9
Phillips Academy High School,City of Chicago SD 299,380.9,372.7,121,121,Illinois,41.8244255,-87.6198195,244 East Pershing Road,60653,Cook County,Chicago,17031,"244 East Pershing Road, Chicago, Illinois, 60653",839600,17031839600,2023,839600,Cook County,Illinois,473,74,166,209,24,1371,73,239,123,355,27,279,275,15.6,35.1,44.2,5.1,5.3,17.4,9,25.9,2,20.4,20.1,978,68880,78379,2085,107,5.1,1978,94.9,175,8.4,1791,85.9,0,0,12,0.6,0,0,0,0,0,0,380.9
Roosevelt High School,City of Chicago SD 299,410.3,396,256,257,Illinois,41.9657534,-87.714339,3436 West Wilson Avenue,60625,Cook County,Chicago,17031,"3436 West Wilson Avenue, Chicago, Illinois, 60625",140702,17031140702,2023,140702,Cook County,Illinois,728,134,181,346,67,3663,672,199,516,394,276,1032,574,18.4,24.9,47.5,9.2,18.3,5.4,14.1,10.8,7.5,28.2,15.7,2090,78789,115256,5318,3441,64.7,1877,35.3,1421,26.7,76,1.4,0,0,329,6.2,0,0,0,0,51,1,410.3
Schurz High School,City of Chicago SD 299,421.3,401.2,309,310,Illinois,41.9474441,-87.7352682,3601 North Milwaukee Avenue,60641,Cook County,Chicago,17031,"3601 North Milwaukee Avenue, Chicago, Illinois, 60641",161100,17031161100,2023,161100,Cook County,Illinois,137,0,32,40,65,1345,19,42,244,129,38,463,410,0,23.4,29.2,47.4,1.4,3.1,18.1,9.6,2.8,34.4,30.5,750,153750,206693,2007,390,19.4,1617,80.6,1299,64.7,114,5.7,0,0,81,4,0,0,0,0,123,6.1,421.3
Senn High School,City of Chicago SD 299,467.2,445.2,340,340,Illinois,41.9890128,-87.6667743,5900 North Glenwood Avenue,60660,Cook County,Chicago,17031,"5900 North Glenwood Avenue, Chicago, Illinois, 60660",30500,17031030500,2023,30500,Cook County,Illinois,366,8,100,24,234,5256,92,98,414,605,163,2216,1668,2.2,27.3,6.6,63.9,1.8,1.9,7.9,11.5,3.1,42.2,31.7,3021,123464,146564,6439,1267,19.7,5172,80.3,3859,59.9,358,5.6,0,0,193,3,26,0.4,0,0,736,11.4,467.2
King College Prep High School,City of Chicago SD 299,481.6,460.6,98,98,Illinois,41.8138852,-87.6029812,4445 South Drexel Boulevard,60653,Cook County,Chicago,17031,"4445 South Drexel Boulevard, Chicago, Illinois, 60653",390300,17031390300,2023,390300,Cook County,Illinois,76,0,54,0,22,2039,33,126,773,505,72,171,359,0,71.1,0,28.9,1.6,6.2,37.9,24.8,3.5,8.4,17.6,1540,35266,52826,2495,91,3.6,2404,96.4,96,3.8,2201,88.2,5,0.2,45,1.8,0,0,0,0,57,2.3,481.6
Steinmetz College Prep HS,City of Chicago SD 299,405.5,395.1,275,276,Illinois,41.935631,-87.784152,3030 North Mobile Avenue,60634,Cook County,Chicago,17031,"3030 North Mobile Avenue, Chicago, Illinois, 60634",190401,17031190401,2023,190401,Cook County,Illinois,322,66,93,89,74,2998,381,324,565,639,324,456,309,20.5,28.9,27.6,23,12.7,10.8,18.8,21.3,10.8,15.2,10.3,1292,104231,118608,4122,2548,61.8,1574,38.2,860,20.9,223,5.4,0,0,351,8.5,0,0,0,0,140,3.4,405.5
Sullivan High School,City of Chicago SD 299,417.5,410.2,166,168,Illinois,42.0028084,-87.6689166,6631 North Bosworth Avenue,60626,Cook County,Chicago,17031,"6631 North Bosworth Avenue, Chicago, Illinois, 60626",830600,17031830600,2023,830600,Cook County,Illinois,297,61,82,105,49,3529,244,173,730,512,127,1082,661,20.5,27.6,35.4,16.5,6.9,4.9,20.7,14.5,3.6,30.7,18.7,2168,64261,78934,4733,992,21,3741,79,2156,45.6,880,18.6,0,0,492,10.4,0,0,30,0.6,183,3.9,417.5
Taft High School,City of Chicago SD 299,480.6,461.7,1020,1021,Illinois,41.984587,-87.7916778,6530 West Bryn Mawr Avenue,60631,Cook County,Chicago,17031,"6530 West Bryn Mawr Avenue, Chicago, Illinois, 60631",100300,17031100300,2023,100300,Cook County,Illinois,269,44,13,194,18,4651,149,147,1164,887,233,1089,982,16.4,4.8,72.1,6.7,3.2,3.2,25,19.1,5,23.4,21.1,2694,74250,107054,6289,922,14.7,5367,85.3,4913,78.1,41,0.7,0,0,274,4.4,0,0,82,1.3,57,0.9,480.6
Tilden Career Communty Academy HS,City of Chicago SD 299,409.8,392.1,52,52,Illinois,41.8075276,-87.6423527,4747 South Union Avenue,60609,Cook County,Chicago,17031,"4747 South Union Avenue, Chicago, Illinois, 60609",843800,17031843800,2023,843800,Cook County,Illinois,163,0,60,56,47,1465,159,119,563,271,48,202,103,0,36.8,34.4,28.8,10.9,8.1,38.4,18.5,3.3,13.8,7,744,57885,74770,2001,790,39.5,1211,60.5,524,26.2,526,26.3,0,0,149,7.4,0,0,0,0,12,0.6,409.8
Von Steuben Metro Science HS,City of Chicago SD 299,513.9,503.2,395,395,Illinois,41.9727844,-87.7128743,5039 North Kimball Avenue,60625,Cook County,Chicago,17031,"5039 North Kimball Avenue, Chicago, Illinois, 60625",831800,17031831800,2023,831800,Cook County,Illinois,665,33,78,323,231,4797,308,180,1091,688,357,1070,1103,5,11.7,48.6,34.7,6.4,3.8,22.7,14.3,7.4,22.3,23,2555,84357,120055,7545,1414,18.7,6131,81.3,2698,35.8,546,7.2,0,0,2610,34.6,0,0,0,0,277,3.7,513.9
Lincoln Park High School,City of Chicago SD 299,537.7,534.2,442,442,Illinois,41.9184082,-87.6458448,2001 North Orchard Street,60614,Cook County,Chicago,17031,"2001 North Orchard Street, Chicago, Illinois, 60614",71200,17031071200,2023,71200,Cook County,Illinois,281,9,51,95,126,1940,31,0,58,38,99,933,781,3.2,18.1,33.8,44.8,1.6,0,3,2,5.1,48.1,40.3,1268,131163,207278,2696,226,8.4,2470,91.6,1978,73.4,28,1,0,0,300,11.1,0,0,0,0,164,6.1,537.7
Washington G High School,City of Chicago SD 299,436.3,414.3,370,371,Illinois,41.6877874,-87.536111,3611 East 114th Street,60617,Cook County,Chicago,17031,"3611 East 114th Street, Chicago, Illinois, 60617",520600,17031520600,2023,520600,Cook County,Illinois,241,93,93,49,6,1498,250,116,482,310,142,155,43,38.6,38.6,20.3,2.5,16.7,7.7,32.2,20.7,9.5,10.3,2.9,805,70750,86114,2616,2264,86.5,352,13.5,352,13.5,0,0,0,0,0,0,0,0,0,0,0,0,436.3
Wells Community Academy HS,City of Chicago SD 299,378.6,373.8,91,91,Illinois,41.8991215,-87.6682922,936 North Ashland Avenue,60622,Cook County,Chicago,17031,"936 North Ashland Avenue, Chicago, Illinois, 60622",242100,17031242100,2023,242100,Cook County,Illinois,116,18,38,41,19,3271,12,12,153,296,50,1689,1059,15.5,32.8,35.3,16.4,0.4,0.4,4.7,9,1.5,51.6,32.4,2044,205338,203494,3825,681,17.8,3144,82.2,2430,63.5,17,0.4,0,0,240,6.3,0,0,10,0.3,447,11.7,378.6
Crane Medical Prep HS,City of Chicago SD 299,428.8,399.5,75,76,Illinois,41.8769747,-87.6832298,2245 West Jackson Boulevard,60612,Cook County,Chicago,17031,"2245 West Jackson Boulevard, Chicago, Illinois, 60612",838000,17031838000,2023,838000,Cook County,Illinois,258,0,16,107,135,1955,54,300,371,496,128,403,203,0,6.2,41.5,52.3,2.8,15.3,19,25.4,6.5,20.6,10.4,1454,-666666666,59457,2650,463,17.5,2187,82.5,466,17.6,1340,50.6,0,0,90,3.4,0,0,0,0,291,11,428.8
Disney II Magnet HS,City of Chicago SD 299,495,446.3,127,127,Illinois,41.9521904,-87.7206118,3900 North Lawndale Avenue,60618,Cook County,Chicago,17031,"3900 North Lawndale Avenue, Chicago, Illinois, 60618",160900,17031160900,2023,160900,Cook County,Illinois,171,0,0,121,50,1818,11,50,197,230,184,633,513,0,0,70.8,29.2,0.6,2.8,10.8,12.7,10.1,34.8,28.2,1037,116063,142402,2434,483,19.8,1951,80.2,1500,61.6,59,2.4,0,0,342,14.1,0,0,0,0,50,2.1,495
Urban Prep Chtr Acad Englewood HS,City of Chicago SD 299,402.5,386.9,32,32,Illinois,41.8440706,-87.6288359,2710 South Dearborn Street,60616,Cook County,Chicago,17031,"2710 South Dearborn Street, Chicago, Illinois, 60616",350400,17031350400,2023,350400,Cook County,Illinois,76,0,42,34,0,937,124,121,245,222,111,47,67,0,55.3,44.7,0,13.2,12.9,26.1,23.7,11.8,5,7.2,652,20938,33877,1615,62,3.8,1553,96.2,0,0,1429,88.5,0,0,0,0,0,0,0,0,124,7.7,402.5
IHSCA Charter High School,City of Chicago SD 299,410,387.8,92,92,Illinois,41.845757,-87.6858588,2520 South Western Avenue,60608,Cook County,Chicago,17031,"2520 South Western Avenue, Chicago, Illinois, 60608",841300,17031841300,2023,841300,Cook County,Illinois,423,42,75,232,74,3128,307,224,356,638,149,944,510,9.9,17.7,54.8,17.5,9.8,7.2,11.4,20.4,4.8,30.2,16.3,1930,69327,105542,4157,2659,64,1498,36,996,24,199,4.8,0,0,130,3.1,0,0,0,0,173,4.2,410
Urban Prep Chtr Acad Bronzeville HS,City of Chicago SD 299,417.8,398.5,54,54,Illinois,41.8440706,-87.6288359,2710 South Dearborn Street,60616,Cook County,Chicago,17031,"2710 South Dearborn Street, Chicago, Illinois, 60616",350400,17031350400,2023,350400,Cook County,Illinois,76,0,42,34,0,937,124,121,245,222,111,47,67,0,55.3,44.7,0,13.2,12.9,26.1,23.7,11.8,5,7.2,652,20938,33877,1615,62,3.8,1553,96.2,0,0,1429,88.5,0,0,0,0,0,0,0,0,124,7.7,417.8
EPIC Academy High School,City of Chicago SD 299,404.7,388.6,86,86,Illinois,41.7448288,-87.549707,8255 South Houston Avenue,60617,Cook County,Chicago,17031,"8255 South Houston Avenue, Chicago, Illinois, 60617",460100,17031460100,2023,460100,Cook County,Illinois,296,0,127,155,14,1588,54,150,346,422,236,247,133,0,42.9,52.4,4.7,3.4,9.4,21.8,26.6,14.9,15.6,8.4,977,48207,60543,2405,444,18.5,1961,81.5,174,7.2,1713,71.2,0,0,0,0,0,0,13,0.5,61,2.5,404.7
Legal Prep Academy Charter HS,City of Chicago SD 299,397,376.5,37,37,Illinois,41.881796,-87.7338075,4319 West Washington Boulevard,60624,Cook County,Chicago,17031,"4319 West Washington Boulevard, Chicago, Illinois, 60624",260300,17031260300,2023,260300,Cook County,Illinois,245,0,199,46,0,885,69,189,339,229,37,17,5,0,81.2,18.8,0,7.8,21.4,38.3,25.9,4.2,1.9,0.6,469,-666666666,56566,1615,171,10.6,1444,89.4,26,1.6,1416,87.7,0,0,0,0,0,0,0,0,2,0.1,397
IJLA Charter High School,City of Chicago SD 299,376.4,361.6,25,25,Illinois,41.8456309,-87.6842073,2570 South Blue Island Avenue,60608,Cook County,Chicago,17031,"2570 South Blue Island Avenue, Chicago, Illinois, 60608",841300,17031841300,2023,841300,Cook County,Illinois,423,42,75,232,74,3128,307,224,356,638,149,944,510,9.9,17.7,54.8,17.5,9.8,7.2,11.4,20.4,4.8,30.2,16.3,1930,69327,105542,4157,2659,64,1498,36,996,24,199,4.8,0,0,130,3.1,0,0,0,0,173,4.2,376.4
Intrinsic Charter High School,City of Chicago SD 299,449.4,441.2,163,163,Illinois,42.0172656,-87.8068196,7500 North Harlem Avenue,60631,Cook County,Chicago,17031,"7500 North Harlem Avenue, Chicago, Illinois, 60631",90100,17031090100,2023,90100,Cook County,Illinois,225,35,45,89,56,2629,0,34,439,552,203,796,605,15.6,20,39.6,24.9,0,1.3,16.7,21,7.7,30.3,23,1427,136463,154979,3467,381,11,3086,89,2924,84.3,9,0.3,0,0,57,1.6,0,0,10,0.3,86,2.5,449.4
Noble St Chtr-Pritzker College Prep,City of Chicago SD 299,461.4,437.3,233,233,Illinois,41.9149225,-87.7297441,4131 West Cortland Street,60639,Cook County,Chicago,17031,"4131 West Cortland Street, Chicago, Illinois, 60639",831200,17031831200,2023,831200,Cook County,Illinois,462,124,144,104,90,3045,706,245,870,601,177,214,232,26.8,31.2,22.5,19.5,23.2,8,28.6,19.7,5.8,7,7.6,1543,61250,72470,4657,4120,88.5,537,11.5,284,6.1,216,4.6,0,0,0,0,0,0,0,0,37,0.8,461.4
