School Name,Tests Taken,Reading / Writing,Writing,Math Scores,state_name_x,latitude,longitude,address,zip_code,county_name_x,city_name,county_code,Street Address,Tract,unique_id,year,tract_number,county_name_y,state_name_y,Population 18 to 24 years (estimate),"18-24, less than high school graduate (estimate)","18-24, high school graduate or eq. (estimate)","18-24, some college or associate's degree (estimate)","18-24, bachelor's degree or higher",Population 25 years and over (estimate),"25 and over, less than 9th grade (estimate)","25 and over, 9th to 12th grade, no diploma (estimate)","25 and over, high school graduate or eq. (estimate)","25 and over, some college, no degree (estimate)","25 and over, associate's degree (estimate)","25 and over, bachelor's degree (estimate)","25 and over, graduate or professional degree (estimate)","18-24, less than high school graduate (percentage)","18-24, high school graduate or eq. (percentage)","18-24, some college or associate's degree (percentage)","18-24, bachelor's degree or higher (percentage)","25 and over, less than 9th grade (percentage)","25 and over, 9th to 12th grade, no diploma (percentage)","25 and over, high school graduate or eq. (percentage)","25 and over, some college, no degree (percentage)","25 and over, associate's degree (percentage)","25 and over, bachelor's degree (percentage)","25 and over, graduate or professional degree (percentage)",Total number of households,Median household income (dollars),Mean household income (dollars),Total population,Hispanic or Latino (estimate),Hispanic or Latino (percentage),Not Hispanic or Latino (estimate),Not Hispanic or Latino (percentage),White alone (estimate),White alone (percentage),Black or African American alone (estimate),Black or African American alone (percentage),American Indian and Alaska Native alone (estimate),American Indian and Alaska Native alone (percentage),Asian alone (estimate),Asian alone (percentage),Native Hawaiian and Other Pacific Islander alone (estimate),Native Hawaiian and Other Pacific Islander alone (percentage),Some other race alone (estimate),Some other race alone (percentage),Two or more races alone (estimate),Two or more races alone (percentage),RW Scores
Abby Kelley Foster Charter Public (District) - Abby Kelley Foster Charter Public School,81,527,,512,Massachusetts,42.3061923,-71.802933,10 New Bond Street,1606,Worcester County,Worcester,25027,"10 New Bond Street, Worcester, Massachusetts, 01606",730100,25027730100,2022,730100,Worcester County,Massachusetts,678,117,271,213,77,4769,128,285,878,972,370,1247,889,17.3,40,31.4,11.4,2.7,6,18.4,20.4,7.8,26.1,18.6,2539,102708,118088,6973,946,13.6,6027,86.4,4151,59.5,878,12.6,0,0,644,9.2,0,0,78,1.1,276,4,527
Abington - Abington High,126,549,,521,Massachusetts,42.1190163,-70.9531624,201 Gliniewicz Way,2351,Plymouth County,Abington,25023,"201 Gliniewicz Way, Abington, Massachusetts, 02351",520202,25023520202,2022,520202,Plymouth County,Massachusetts,419,0,186,84,149,4346,63,40,1420,501,639,1221,462,0,44.4,20,35.6,1.4,0.9,32.7,11.5,14.7,28.1,10.6,2303,127645,130792,6262,167,2.7,6095,97.3,5549,88.6,41,0.7,0,0,153,2.4,0,0,0,0,352,5.6,549
Academy Of the Pacific Rim Charter Public (District) - Academy Of the Pacific Rim Charter Public School,2,,,,Massachusetts,42.2444804,-71.1318984,1 Westinghouse Plaza,2136,Suffolk County,Boston,25025,"1 Westinghouse Plaza, Boston, Massachusetts, 02136",140102,25025140102,2022,140102,Suffolk County,Massachusetts,505,102,102,263,38,3552,37,124,864,702,376,964,485,20.2,20.2,52.1,7.5,1,3.5,24.3,19.8,10.6,27.1,13.7,1782,122990,133480,5457,662,12.1,4795,87.9,2027,37.1,2181,40,0,0,368,6.7,0,0,12,0.2,207,3.8,0
Acton-Boxborough - Acton-Boxborough Regional High,449,655,,681,Massachusetts,42.4796958,-71.4580815,36 Charter Road,1720,Middlesex County,Acton,25017,"36 Charter Road, Acton, Massachusetts, 01720",363202,25017363202,2022,363202,Middlesex County,Massachusetts,285,29,79,73,104,2645,15,46,175,216,77,852,1264,10.2,27.7,25.6,36.5,0.6,1.7,6.6,8.2,2.9,32.2,47.8,1372,171806,201723,3879,185,4.8,3694,95.2,2421,62.4,0,0,0,0,992,25.6,0,0,0,0,281,7.2,655
Advanced Math and Science Academy Charter (District) - Advanced Math and Science Academy Charter School,211,604,,634,Massachusetts,42.3336808,-71.5777392,201 Forest Street,1752,Middlesex County,Marlborough,25017,"201 Forest Street, Marlborough, Massachusetts, 01752",321400,25017321400,2022,321400,Middlesex County,Massachusetts,251,7,62,131,51,3279,63,102,699,531,169,911,804,2.8,24.7,52.2,20.3,1.9,3.1,21.3,16.2,5.2,27.8,24.5,1733,125579,135230,4451,468,10.5,3983,89.5,2735,61.4,517,11.6,0,0,339,7.6,0,0,97,2.2,295,6.6,604
Agawam - Agawam High,106,549,,538,Massachusetts,42.0695391,-72.6148117,,N/A,Hampden County,Agawam,25013,,813208,25013813208,2022,813208,Hampden County,Massachusetts,367,0,117,107,143,2306,36,149,602,273,459,589,198,0,31.9,29.2,39,1.6,6.5,26.1,11.8,19.9,25.5,8.6,1307,82132,101536,3347,105,3.1,3242,96.9,2989,89.3,79,2.4,0,0,122,3.6,0,0,0,0,52,1.6,549
Amesbury - Amesbury High,101,574,,566,Massachusetts,42.8510832,-70.9424554,5 Highland Street,1913,Essex County,Amesbury,25009,"5 Highland Street, Amesbury, Massachusetts, 01913",266100,25009266100,2022,266100,Essex County,Massachusetts,334,43,107,109,75,3374,12,36,863,470,452,882,659,12.9,32,32.6,22.5,0.4,1.1,25.6,13.9,13.4,26.1,19.5,1849,97309,143271,4465,103,2.3,4362,97.7,3949,88.4,0,0,5,0.1,43,1,0,0,0,0,365,8.2,574
Amherst-Pelham - Amherst Regional High,127,633,,633,Massachusetts,42.3810321,-72.5129386,21 Mattoon Street,1002,Hampshire County,Amherst,25015,"21 Mattoon Street, Amherst, Massachusetts, 01002",820500,25015820500,2022,820500,Hampshire County,Massachusetts,2310,2,475,1711,122,2802,40,39,373,315,217,443,1375,0.1,20.6,74.1,5.3,1.4,1.4,13.3,11.2,7.7,15.8,49.1,2699,44049,75840,5640,805,14.3,4835,85.7,4196,74.4,83,1.5,7,0.1,389,6.9,0,0,0,0,160,2.8,633
Andover - Andover High,402,611,,619,Massachusetts,42.6571642,-71.1554961,80 Shawsheen Road,1810,Essex County,Andover,25009,"80 Shawsheen Road, Andover, Massachusetts, 01810",254401,25009254401,2022,254401,Essex County,Massachusetts,234,27,58,36,113,2387,25,37,147,220,152,846,960,11.5,24.8,15.4,48.3,1,1.6,6.2,9.2,6.4,35.4,40.2,1341,169531,205474,3763,435,11.6,3328,88.4,2356,62.6,314,8.3,0,0,453,12,0,0,0,0,205,5.4,611
Argosy Collegiate Charter School (District) - Argosy Collegiate Charter School,24,473,,488,Massachusetts,41.6886926,-71.1615221,263 Hamlet Street,2724,Bristol County,Fall River,25005,"263 Hamlet Street, Fall River, Massachusetts, 02724",640201,25005640201,2022,640201,Bristol County,Massachusetts,250,53,123,44,30,1871,681,260,422,216,12,213,67,21.2,49.2,17.6,12,36.4,13.9,22.6,11.5,0.6,11.4,3.6,1112,47014,51462,2892,811,28,2081,72,1237,42.8,103,3.6,0,0,169,5.8,0,0,93,3.2,479,16.6,473
Arlington - Arlington High,386,626,,619,Massachusetts,42.4153925,-71.1564729,,N/A,Middlesex County,Arlington,25017,,356703,25017356703,2022,356703,Middlesex County,Massachusetts,216,4,13,40,159,2308,10,0,308,211,157,588,1034,1.9,6,18.5,73.6,0.4,0,13.3,9.1,6.8,25.5,44.8,1406,132917,210132,3103,143,4.6,2960,95.4,2395,77.2,130,4.2,0,0,311,10,0,0,4,0.1,120,3.9,626
Ashburnham-Westminster - Oakmont Regional High School,71,575,,565,Massachusetts,42.6036953,-71.9222309,9 Oakmont Drive,1430,Worcester County,Westminster,25027,"9 Oakmont Drive, Westminster, Massachusetts, 01430",700100,25027700100,2022,700100,Worcester County,Massachusetts,628,78,282,172,96,4383,89,109,883,938,649,1097,618,12.4,44.9,27.4,15.3,2,2.5,20.1,21.4,14.8,25,14.1,2288,112133,130527,6337,250,3.9,6087,96.1,5714,90.2,48,0.8,14,0.2,54,0.9,0,0,48,0.8,209,3.3,575
Ashland - Ashland High,226,593,,610,Massachusetts,42.250611,-71.4724887,,1721,Middlesex County,Ashland,25017,,385101,25017385101,2022,385101,Middlesex County,Massachusetts,68,0,68,0,0,2487,0,79,102,488,97,1041,680,0,100,0,0,0,3.2,4.1,19.6,3.9,41.9,27.3,1248,179340,199473,3101,160,5.2,2941,94.8,1722,55.5,491,15.8,0,0,706,22.8,0,0,0,0,22,0.7,593
Assabet Valley Regional Vocational Technical - Assabet Valley Vocational High School,70,534,,511,Massachusetts,42.3688613,-71.5648877,215 Fitchburg Street,1752,Middlesex County,Marlborough,25017,"215 Fitchburg Street, Marlborough, Massachusetts, 01752",322200,25017322200,2022,322200,Middlesex County,Massachusetts,299,16,124,41,118,3435,162,90,573,582,216,978,834,5.4,41.5,13.7,39.5,4.7,2.6,16.7,16.9,6.3,28.5,24.3,1992,106900,130143,4504,152,3.4,4352,96.6,3772,83.7,10,0.2,22,0.5,273,6.1,0,0,91,2,184,4.1,534
Athol-Royalston - Athol High,11,495,,516,Massachusetts,42.6685533,-72.1653076,,N/A,Worcester County,N/A,25027,,702201,25027702201,2022,702201,Worcester County,Massachusetts,84,6,20,17,41,1036,12,106,362,170,129,156,101,7.1,23.8,20.2,48.8,1.2,10.2,34.9,16.4,12.5,15.1,9.7,538,98542,100899,1455,0,0,1455,100,1406,96.6,0,0,0,0,2,0.1,0,0,19,1.3,28,1.9,495
Atlantis Charter (District) - Atlantis Charter School,136,441,,418,Massachusetts,41.6702115,-71.1438251,991 Jefferson Street,2721,Bristol County,Fall River,25005,"991 Jefferson Street, Fall River, Massachusetts, 02721",640700,25005640700,2022,640700,Bristol County,Massachusetts,105,79,18,0,8,1859,130,139,852,329,76,264,69,75.2,17.1,0,7.6,7,7.5,45.8,17.7,4.1,14.2,3.7,1048,77333,90544,2557,7,0.3,2550,99.7,2043,79.9,253,9.9,0,0,70,2.7,0,0,0,0,184,7.2,441
Attleboro - Attleboro High,243,547,,531,Massachusetts,41.9396865,-71.3038481,1 Blue Pride Way,2703,Bristol County,Attleboro,25005,"1 Blue Pride Way, Attleboro, Massachusetts, 02703",631200,25005631200,2022,631200,Bristol County,Massachusetts,477,59,211,114,93,5626,205,281,1650,1115,600,1188,587,12.4,44.2,23.9,19.5,3.6,5,29.3,19.8,10.7,21.1,10.4,2910,124918,148523,8148,717,8.8,7431,91.2,6671,81.9,536,6.6,0,0,0,0,0,0,44,0.5,180,2.2,547
Attleboro - Attleboro Virtual Academy,4,,,,Massachusetts,41.9443066,-71.2813908,,2703,Bristol County,Attleboro,25005,,631400,25005631400,2022,631400,Bristol County,Massachusetts,321,10,217,19,75,2044,202,187,592,381,152,381,149,3.1,67.6,5.9,23.4,9.9,9.1,29,18.6,7.4,18.6,7.3,1317,56417,73115,3372,1133,33.6,2239,66.4,1786,53,363,10.8,0,0,0,0,0,0,0,0,90,2.7,0
Auburn - Auburn Senior High,134,553,,542,Massachusetts,42.207334,-71.837325,99 Auburn Street,1501,Worcester County,Auburn,25027,"99 Auburn Street, Auburn, Massachusetts, 01501",736300,25027736300,2022,736300,Worcester County,Massachusetts,169,0,59,52,58,1828,53,81,465,358,191,454,226,0,34.9,30.8,34.3,2.9,4.4,25.4,19.6,10.4,24.8,12.4,986,88438,108754,2543,212,8.3,2331,91.7,2139,84.1,24,0.9,0,0,73,2.9,0,0,6,0.2,89,3.5,553
Avon - Avon Middle High School,28,534,,526,Massachusetts,42.1295985,-71.0430184,285 West Main Street,2322,Norfolk County,Avon,25021,"285 West Main Street, Avon, Massachusetts, 02322",457100,25021457100,2022,457100,Norfolk County,Massachusetts,450,30,202,155,63,3256,130,137,1098,395,475,768,253,6.7,44.9,34.4,14,4,4.2,33.7,12.1,14.6,23.6,7.8,1770,125000,121417,4730,125,2.6,4605,97.4,3194,67.5,986,20.8,19,0.4,158,3.3,0,0,32,0.7,216,4.6,534
Ayer Shirley School District - Ayer Shirley Regional High School,67,550,,518,Massachusetts,42.5667399,-71.5757882,141 Washington Street,1432,Middlesex County,Ayer,25017,"141 Washington Street, Ayer, Massachusetts, 01432",325102,25017325102,2022,325102,Middlesex County,Massachusetts,169,19,100,35,15,3464,267,255,778,602,393,788,381,11.2,59.2,20.7,8.9,7.7,7.4,22.5,17.4,11.3,22.7,11,2014,81250,97103,4354,822,18.9,3532,81.1,3010,69.1,225,5.2,8,0.2,175,4,0,0,0,0,114,2.6,550
Barnstable - Barnstable High,157,558,,550,Massachusetts,41.6652609,-70.2878545,,N/A,Barnstable County,Barnstable,25001,,15300,25001015300,2022,15300,Barnstable County,Massachusetts,77,0,45,32,0,2875,331,266,727,538,293,502,218,0,58.4,41.6,0,11.5,9.3,25.3,18.7,10.2,17.5,7.6,1729,42227,68633,3864,891,23.1,2973,76.9,1875,48.5,473,12.2,0,0,0,0,0,0,94,2.4,531,13.7,558
Baystate Academy Charter Public School (District) - Baystate Academy Charter Public School,30,452,,443,Massachusetts,42.1349863,-72.5454398,2001 Roosevelt Avenue,1104,Hampden County,Springfield,25013,"2001 Roosevelt Avenue, Springfield, Massachusetts, 01104",800202,25013800202,2022,800202,Hampden County,Massachusetts,185,38,77,70,0,940,18,98,341,271,76,94,42,20.5,41.6,37.8,0,1.9,10.4,36.3,28.8,8.1,10,4.5,548,58889,65951,1487,713,47.9,774,52.1,615,41.4,102,6.9,0,0,25,1.7,0,0,0,0,32,2.2,452
Bedford - Bedford High,216,618,,620,Massachusetts,42.4072107,-71.3824374,,N/A,Middlesex County,N/A,25017,,365100,25017365100,2022,365100,Middlesex County,Massachusetts,429,153,139,40,97,5206,32,0,316,177,66,2162,2453,35.7,32.4,9.3,22.6,0.6,0,6.1,3.4,1.3,41.5,47.1,2556,250001,325238,8049,75,0.9,7974,99.1,6482,80.5,245,3,0,0,750,9.3,23,0.3,58,0.7,416,5.2,618
Belchertown - Belchertown High,117,571,,559,Massachusetts,42.2800443,-72.4034847,,1007,Hampshire County,Belchertown,25015,,820207,25015820207,2022,820207,Hampshire County,Massachusetts,395,0,43,163,189,3659,38,75,944,718,509,792,583,0,10.9,41.3,47.8,1,2,25.8,19.6,13.9,21.6,15.9,2247,85152,102933,5028,132,2.6,4896,97.4,4397,87.5,139,2.8,0,0,269,5.4,0,0,0,0,91,1.8,571
Bellingham - Bellingham High School,85,551,,531,Massachusetts,42.0751635,-71.4684972,60 Blackstone Street,2019,Norfolk County,Bellingham,25021,"60 Blackstone Street, Bellingham, Massachusetts, 02019",443104,25021443104,2022,443104,Norfolk County,Massachusetts,430,0,183,184,63,3297,19,49,783,751,271,769,655,0,42.6,42.8,14.7,0.6,1.5,23.7,22.8,8.2,23.3,19.9,1694,119901,152124,4604,16,0.3,4588,99.7,4436,96.4,29,0.6,0,0,59,1.3,0,0,0,0,64,1.4,551
Bellingham - Keough Memorial Academy,3,,,,Massachusetts,42.0328536,-71.4902505,60 Harpin Street,2019,Norfolk County,Bellingham,25021,"60 Harpin Street, Bellingham, Massachusetts, 02019",443103,25021443103,2022,443103,Norfolk County,Massachusetts,453,38,294,115,6,2774,80,116,1081,302,278,455,462,8.4,64.9,25.4,1.3,2.9,4.2,39,10.9,10,16.4,16.7,1518,118295,127584,4238,428,10.1,3810,89.9,3622,85.5,0,0,0,0,13,0.3,0,0,6,0.1,169,4,0
Belmont - Belmont High,329,653,,662,Massachusetts,42.3944687,-71.1672215,221 Concord Avenue,2478,Middlesex County,Belmont,25017,"221 Concord Avenue, Belmont, Massachusetts, 02478",357200,25017357200,2022,357200,Middlesex County,Massachusetts,134,13,36,12,73,2291,13,9,178,94,108,669,1220,9.7,26.9,9,54.5,0.6,0.4,7.8,4.1,4.7,29.2,53.3,1202,198382,283784,3270,97,3,3173,97,2309,70.6,0,0,3,0.1,646,19.8,0,0,0,0,215,6.6,653
Berkshire Arts and Technology Charter Public (District) - Berkshire Arts and Technology Charter Public School,26,555,,535,Massachusetts,42.6195303,-73.1212107,1 Commercial Street,1220,Berkshire County,Adams,25003,"1 Commercial Street, Adams, Massachusetts, 01220",922100,25003922100,2022,922100,Berkshire County,Massachusetts,186,11,38,91,46,1963,14,61,725,407,160,465,131,5.9,20.4,48.9,24.7,0.7,3.1,36.9,20.7,8.2,23.7,6.7,1393,51607,68159,2623,162,6.2,2461,93.8,2340,89.2,18,0.7,0,0,0,0,0,0,0,0,103,3.9,555
Berkshire Hills - Monument Mt Regional High,97,557,,539,Massachusetts,42.2492263,-73.3284038,600 Stockbridge Road,1230,Berkshire County,Great Barrington,25003,"600 Stockbridge Road, Great Barrington, Massachusetts, 01230",925102,25003925102,2022,925102,Berkshire County,Massachusetts,677,0,92,565,20,3806,97,149,1054,309,440,953,804,0,13.6,83.5,3,2.5,3.9,27.7,8.1,11.6,25,21.1,2237,64327,107192,5470,185,3.4,5285,96.6,4761,87,201,3.7,23,0.4,46,0.8,0,0,20,0.4,234,4.3,557
Berlin-Boylston - Tahanto Regional High,57,567,,563,Massachusetts,42.3714063,-71.7205444,1001 Main Street,1505,Worcester County,Boylston,25027,"1001 Main Street, Boylston, Massachusetts, 01505",718100,25027718100,2022,718100,Worcester County,Massachusetts,210,22,80,65,43,3687,31,97,552,678,360,1156,813,10.5,38.1,31,20.5,0.8,2.6,15,18.4,9.8,31.4,22.1,1864,133292,168471,4855,139,2.9,4716,97.1,4426,91.2,0,0,0,0,169,3.5,0,0,22,0.5,99,2,567
Beverly - Beverly High,287,546,,517,Massachusetts,42.5647755,-70.8811725,100 Sohier Road,1915,Essex County,Beverly,25009,"100 Sohier Road, Beverly, Massachusetts, 01915",217300,25009217300,2022,217300,Essex County,Massachusetts,349,20,172,0,157,3115,79,80,958,356,340,879,423,5.7,49.3,0,45,2.5,2.6,30.8,11.4,10.9,28.2,13.6,2014,103261,111996,4921,852,17.3,4069,82.7,3315,67.4,477,9.7,0,0,132,2.7,0,0,0,0,145,2.9,546
Billerica - Billerica Memorial High School,230,535,,529,Massachusetts,42.5602772,-71.2742218,35 River Street,1821,Middlesex County,Billerica,25017,"35 River Street, Billerica, Massachusetts, 01821",316102,25017316102,2022,316102,Middlesex County,Massachusetts,641,115,184,194,148,4807,26,137,884,1030,362,1647,721,17.9,28.7,30.3,23.1,0.5,2.9,18.4,21.4,7.5,34.3,15,2383,149895,163868,6764,201,3,6563,97,5879,86.9,317,4.7,0,0,357,5.3,10,0.1,0,0,0,0,535
Blackstone Valley Regional Vocational Technical - Blackstone Valley,290,565,,542,Massachusetts,42.1634384,-71.6152771,65 Pleasant Street,1568,Worcester County,Upton,25027,"65 Pleasant Street, Upton, Massachusetts, 01568",743100,25027743100,2022,743100,Worcester County,Massachusetts,401,1,101,168,131,5703,41,88,842,1062,372,2075,1223,0.2,25.2,41.9,32.7,0.7,1.5,14.8,18.6,6.5,36.4,21.4,2733,145129,178318,8037,445,5.5,7592,94.5,6557,81.6,426,5.3,0,0,312,3.9,0,0,40,0.5,257,3.2,565
Blackstone-Millville - Blackstone Millville RHS,46,547,,509,Massachusetts,42.0297292,-71.5387614,175 Lincoln Street,1504,Worcester County,Blackstone,25027,"175 Lincoln Street, Blackstone, Massachusetts, 01504",747102,25027747102,2022,747102,Worcester County,Massachusetts,193,30,51,74,38,2843,36,114,930,381,449,507,426,15.5,26.4,38.3,19.7,1.3,4,32.7,13.4,15.8,17.8,15,1486,121563,125642,4023,60,1.5,3963,98.5,3428,85.2,252,6.3,0,0,99,2.5,0,0,14,0.3,170,4.2,547
Blue Hills Regional Vocational Technical - Blue Hills Regional Vocational Technical,102,517,,501,Massachusetts,42.1834634,-71.1033003,800 Randolph Street,2021,Norfolk County,Canton,25021,"800 Randolph Street, Canton, Massachusetts, 02021",415300,25021415300,2022,415300,Norfolk County,Massachusetts,235,52,46,70,67,2787,15,79,423,329,224,759,958,22.1,19.6,29.8,28.5,0.5,2.8,15.2,11.8,8,27.2,34.4,1477,138917,168105,3872,158,4.1,3714,95.9,3096,80,165,4.3,0,0,192,5,0,0,12,0.3,249,6.4,517
Boston - Another Course To College,82,405,,395,Massachusetts,42.2651946,-71.1179059,612 East Metropolitan Avenue,2136,Suffolk County,Boston,25025,"612 East Metropolitan Avenue, Boston, Massachusetts, 02136",140300,25025140300,2022,140300,Suffolk County,Massachusetts,610,120,173,291,26,5878,397,168,1688,1005,767,1319,534,19.7,28.4,47.7,4.3,6.8,2.9,28.7,17.1,13,22.4,9.1,2749,87364,89977,7857,2150,27.4,5707,72.6,789,10,4918,62.6,0,0,0,0,0,0,0,0,0,0,405
Boston - Boston Arts Academy,52,481,,466,Massachusetts,42.3461429,-71.0949861,174 Ipswich Street,2215,Suffolk County,Boston,25025,"174 Ipswich Street, Boston, Massachusetts, 02215",10206,25025010206,2022,10206,Suffolk County,Massachusetts,688,74,245,233,136,1472,26,0,212,88,25,257,864,10.8,35.6,33.9,19.8,1.8,0,14.4,6,1.7,17.5,58.7,1248,64141,93685,2218,575,25.9,1643,74.1,1066,48.1,131,5.9,14,0.6,286,12.9,0,0,26,1.2,120,5.4,481
Boston - Boston Community Leadership Academy,149,429,,410,Massachusetts,42.2632811,-71.1178911,655 Metropolitan Avenue,2136,Suffolk County,Boston,25025,"655 Metropolitan Avenue, Boston, Massachusetts, 02136",140105,25025140105,2022,140105,Suffolk County,Massachusetts,263,56,114,93,0,2550,129,254,538,488,194,461,486,21.3,43.3,35.4,0,5.1,10,21.1,19.1,7.6,18.1,19.1,1335,79375,97366,3592,643,17.9,2949,82.1,1257,35,1340,37.3,0,0,56,1.6,0,0,73,2,223,6.2,429
Boston - Boston International High School & Newcomers Academy,60,410,,434,Massachusetts,42.2812312,-71.0808656,100 Maxwell Street,2124,Suffolk County,Boston,25025,"100 Maxwell Street, Boston, Massachusetts, 02124",100300,25025100300,2022,100300,Suffolk County,Massachusetts,257,26,148,64,19,2657,154,209,981,521,265,392,135,10.1,57.6,24.9,7.4,5.8,7.9,36.9,19.6,10,14.8,5.1,1258,84500,94694,3931,227,5.8,3704,94.2,113,2.9,3014,76.7,0,0,9,0.2,0,0,18,0.5,550,14,410
Boston - Boston Latin Academy,512,557,,568,Massachusetts,42.316119,-71.0845953,205 Townsend Street,2121,Suffolk County,Boston,25025,"205 Townsend Street, Boston, Massachusetts, 02121",82000,25025082000,2022,82000,Suffolk County,Massachusetts,441,43,131,240,27,2359,115,363,592,356,136,544,253,9.8,29.7,54.4,6.1,4.9,15.4,25.1,15.1,5.8,23.1,10.7,1314,73414,89789,3476,896,25.8,2580,74.2,187,5.4,2248,64.7,0,0,27,0.8,0,0,0,0,118,3.4,557
Boston - Boston Latin School,586,647,,652,Massachusetts,42.4072107,-71.3824374,,N/A,Middlesex County,N/A,25017,,365100,25017365100,2022,365100,Middlesex County,Massachusetts,429,153,139,40,97,5206,32,0,316,177,66,2162,2453,35.7,32.4,9.3,22.6,0.6,0,6.1,3.4,1.3,41.5,47.1,2556,250001,325238,8049,75,0.9,7974,99.1,6482,80.5,245,3,0,0,750,9.3,23,0.3,58,0.7,416,5.2,647
Boston - Brighton High School,30,425,,422,Massachusetts,42.3495825,-71.1460435,25 Warren Street,2135,Suffolk County,Boston,25025,"25 Warren Street, Boston, Massachusetts, 02135",603,25025000603,2022,603,Suffolk County,Massachusetts,317,34,0,182,101,1075,33,66,250,127,6,211,382,10.7,0,57.4,31.9,3.1,6.1,23.3,11.8,0.6,19.6,35.5,937,24450,54857,1650,360,21.8,1290,78.2,369,22.4,183,11.1,24,1.5,626,37.9,0,0,0,0,88,5.3,425
Boston - Burke High School,117,411,,409,Massachusetts,42.3071661,-71.0811608,60 Washington Street,2121,Suffolk County,Boston,25025,"60 Washington Street, Boston, Massachusetts, 02121",90200,25025090200,2022,90200,Suffolk County,Massachusetts,240,0,78,125,37,1605,226,147,383,253,122,311,163,0,32.5,52.1,15.4,14.1,9.2,23.9,15.8,7.6,19.4,10.2,735,41068,66620,2943,875,29.7,2068,70.3,74,2.5,1180,40.1,0,0,20,0.7,0,0,66,2.2,728,24.7,411
Boston - Charlestown High School,59,407,,426,Massachusetts,42.3803747,-71.0609962,240 Medford Street,2129,Suffolk County,Boston,25025,"240 Medford Street, Boston, Massachusetts, 02129",40300,25025040300,2022,40300,Suffolk County,Massachusetts,153,17,39,41,56,3437,40,61,322,209,86,1209,1510,11.1,25.5,26.8,36.6,1.2,1.8,9.4,6.1,2.5,35.2,43.9,2183,172075,201690,4803,251,5.2,4552,94.8,3898,81.2,317,6.6,0,0,163,3.4,0,0,0,0,174,3.6,407
Boston - Community Academy of Science and Health,88,415,,403,Massachusetts,42.3010597,-71.0610656,11 Charles Street,2122,Suffolk County,Boston,25025,"11 Charles Street, Boston, Massachusetts, 02122",92000,25025092000,2022,92000,Suffolk County,Massachusetts,571,51,207,264,49,3979,545,216,1222,811,174,676,335,8.9,36.3,46.2,8.6,13.7,5.4,30.7,20.4,4.4,17,8.4,1850,61250,87500,5751,1316,22.9,4435,77.1,469,8.2,2767,48.1,18,0.3,730,12.7,0,0,25,0.4,426,7.4,415
Boston - Dearborn 6-12 STEM Academy,5,,,,Massachusetts,42.3297775,-71.0786582,6 Dearborn Street,2119,Suffolk County,Boston,25025,"6 Dearborn Street, Boston, Massachusetts, 02119",80300,25025080300,2022,80300,Suffolk County,Massachusetts,233,45,143,6,39,1414,104,190,219,317,65,278,241,19.3,61.4,2.6,16.7,7.4,13.4,15.5,22.4,4.6,19.7,17,939,43953,56118,2059,687,33.4,1372,66.6,266,12.9,927,45,0,0,75,3.6,0,0,35,1.7,69,3.4,0
Boston - East Boston High School,155,428,,426,Massachusetts,42.3809511,-71.0350852,86 White Street,2128,Suffolk County,Boston,25025,"86 White Street, Boston, Massachusetts, 02128",50101,25025050101,2022,50101,Suffolk County,Massachusetts,451,81,196,134,40,3568,862,439,801,401,136,450,479,18,43.5,29.7,8.9,24.2,12.3,22.4,11.2,3.8,12.6,13.4,1804,72344,99078,5304,3410,64.3,1894,35.7,1543,29.1,16,0.3,0,0,185,3.5,0,0,29,0.5,121,2.3,428
Boston - English High School,154,398,,386,Massachusetts,42.3064583,-71.1093564,144 McBride Street,2130,Suffolk County,Boston,25025,"144 McBride Street, Boston, Massachusetts, 02130",120201,25025120201,2022,120201,Suffolk County,Massachusetts,219,4,12,28,175,3461,79,111,284,222,207,1284,1274,1.8,5.5,12.8,79.9,2.3,3.2,8.2,6.4,6,37.1,36.8,2106,98929,135797,4459,844,18.9,3615,81.1,2169,48.6,738,16.6,0,0,461,10.3,0,0,43,1,204,4.6,398
Boston - Excel High School,68,425,,463,Massachusetts,42.3329072,-71.0445805,95 G Street,2127,Suffolk County,Boston,25025,"95 G Street, Boston, Massachusetts, 02127",60400,25025060400,2022,60400,Suffolk County,Massachusetts,484,0,41,27,416,4016,8,83,468,178,24,2159,1096,0,8.5,5.6,86,0.2,2.1,11.7,4.4,0.6,53.8,27.3,2380,188333,213044,5071,150,3,4921,97,4918,97,0,0,0,0,0,0,0,0,0,0,3,0.1,425
Boston - Fenway High School,23,464,,451,Massachusetts,42.3306454,-71.0992038,67 Alleghany Street,2120,Suffolk County,Boston,25025,"67 Alleghany Street, Boston, Massachusetts, 02120",80900,25025080900,2022,80900,Suffolk County,Massachusetts,1528,0,118,1020,390,1799,38,22,147,125,123,606,738,0,7.7,66.8,25.5,2.1,1.2,8.2,6.9,6.8,33.7,41,1589,69033,103765,3384,427,12.6,2957,87.4,2048,60.5,169,5,69,2,610,18,0,0,0,0,61,1.8,464
Boston - Greater Egleston High School,2,,,,Massachusetts,42.3142129,-71.0990909,80 School Street,2119,Suffolk County,Boston,25025,"80 School Street, Boston, Massachusetts, 02119",120301,25025120301,2022,120301,Suffolk County,Massachusetts,366,0,45,58,263,3744,103,185,469,404,160,1127,1296,0,12.3,15.8,71.9,2.8,4.9,12.5,10.8,4.3,30.1,34.6,2059,114627,127655,4929,1544,31.3,3385,68.7,2247,45.6,527,10.7,0,0,259,5.3,0,0,105,2.1,247,5,0
Boston - Henderson K-12 Inclusion School Upper,88,428,,410,Massachusetts,42.3555076,-71.0565364,,N/A,Suffolk County,Boston,25025,,70104,25025070104,2022,70104,Suffolk County,Massachusetts,535,0,111,313,111,1775,0,24,72,104,46,469,1060,0,20.7,58.5,20.7,0,1.4,4.1,5.9,2.6,26.4,59.7,1324,208750,323518,2550,197,7.7,2353,92.3,1644,64.5,75,2.9,0,0,561,22,0,0,15,0.6,58,2.3,428
Boston - Lyon High School,7,,,,Massachusetts,42.3521903,-71.1608046,95 Beechcroft Street,2135,Suffolk County,Boston,25025,"95 Beechcroft Street, Boston, Massachusetts, 02135",201,25025000201,2022,200,Suffolk County,Massachusetts,297,10,40,52,195,3369,249,84,270,268,250,1160,1088,3.4,13.5,17.5,65.7,7.4,2.5,8,8,7.4,34.4,32.3,1891,111477,118897,4375,451,10.3,3924,89.7,2747,62.8,211,4.8,0,0,288,6.6,0,0,273,6.2,405,9.3,0
Boston - Madison Park Technical Vocational High School,25,415,,392,Massachusetts,42.3319121,-71.0906987,75 Malcolm X Boulevard,2120,Suffolk County,Boston,25025,"75 Malcolm X Boulevard, Boston, Massachusetts, 02120",80601,25025080601,2022,80601,Suffolk County,Massachusetts,2296,9,333,1753,201,984,192,140,155,209,51,104,133,0.4,14.5,76.4,8.8,19.5,14.2,15.8,21.2,5.2,10.6,13.5,692,18125,45815,3572,503,14.1,3069,85.9,1120,31.4,715,20,0,0,1004,28.1,4,0.1,21,0.6,205,5.7,415
Boston - Margarita Muniz Academy,23,425,,420,Massachusetts,42.3071417,-71.1143075,20 Child Street,2130,Suffolk County,Boston,25025,"20 Child Street, Boston, Massachusetts, 02130",120400,25025120400,2022,120400,Suffolk County,Massachusetts,332,31,63,72,166,5282,123,37,399,387,115,1411,2810,9.3,19,21.7,50,2.3,0.7,7.6,7.3,2.2,26.7,53.2,2978,145543,166860,6598,726,11,5872,89,4842,73.4,345,5.2,10,0.2,295,4.5,0,0,77,1.2,303,4.6,425
Boston - New Mission High School,158,428,,436,Massachusetts,42.2626853,-71.1178374,655 Metropolitan Avenue,2136,Suffolk County,Boston,25025,"655 Metropolitan Avenue, Boston, Massachusetts, 02136",140105,25025140105,2022,140105,Suffolk County,Massachusetts,263,56,114,93,0,2550,129,254,538,488,194,461,486,21.3,43.3,35.4,0,5.1,10,21.1,19.1,7.6,18.1,19.1,1335,79375,97366,3592,643,17.9,2949,82.1,1257,35,1340,37.3,0,0,56,1.6,0,0,73,2,223,6.2,428
Boston - O'Bryant School of Math & Science,581,526,,549,Massachusetts,42.330979,-71.087859,55 Malcolm X Boulevard,2120,Suffolk County,Boston,25025,"55 Malcolm X Boulevard, Boston, Massachusetts, 02120",80601,25025080601,2022,80601,Suffolk County,Massachusetts,2296,9,333,1753,201,984,192,140,155,209,51,104,133,0.4,14.5,76.4,8.8,19.5,14.2,15.8,21.2,5.2,10.6,13.5,692,18125,45815,3572,503,14.1,3069,85.9,1120,31.4,715,20,0,0,1004,28.1,4,0.1,21,0.6,205,5.7,526
Boston - Quincy Upper School,53,462,,447,Massachusetts,42.3476037,-71.0641789,,2116,Suffolk County,Boston,25025,,70202,25025070202,2022,70202,Suffolk County,Massachusetts,727,0,29,528,170,2793,324,193,601,192,169,610,704,0,4,72.6,23.4,11.6,6.9,21.5,6.9,6.1,21.8,25.2,2121,44361,102530,4233,525,12.4,3708,87.6,965,22.8,99,2.3,27,0.6,2387,56.4,0,0,0,0,230,5.4,462
Boston - Snowden International High School,30,435,,432,Massachusetts,42.3555076,-71.0565364,,N/A,Suffolk County,Boston,25025,,70104,25025070104,2022,70104,Suffolk County,Massachusetts,535,0,111,313,111,1775,0,24,72,104,46,469,1060,0,20.7,58.5,20.7,0,1.4,4.1,5.9,2.6,26.4,59.7,1324,208750,323518,2550,197,7.7,2353,92.3,1644,64.5,75,2.9,0,0,561,22,0,0,15,0.6,58,2.3,435
Boston - TechBoston Academy,161,404,,398,Massachusetts,42.2853412,-71.0758714,9 Peacevale Road,2124,Suffolk County,Boston,25025,"9 Peacevale Road, Boston, Massachusetts, 02124",100500,25025100500,2022,100500,Suffolk County,Massachusetts,800,220,152,247,181,5103,529,301,1063,659,269,1196,1086,27.5,19,30.9,22.6,10.4,5.9,20.8,12.9,5.3,23.4,21.3,2643,58828,87656,7627,1239,16.2,6388,83.8,1240,16.3,3726,48.9,17,0.2,624,8.2,0,0,78,1,703,9.2,404
Boston Collegiate Charter (District) - Boston Collegiate Charter School,85,514,,505,Massachusetts,42.3217661,-71.0607368,11 Mayhew Street,2125,Suffolk County,Boston,25025,"11 Mayhew Street, Boston, Massachusetts, 02125",90700,25025090700,2022,90700,Suffolk County,Massachusetts,506,109,73,135,189,3167,169,117,590,294,90,1114,793,21.5,14.4,26.7,37.4,5.3,3.7,18.6,9.3,2.8,35.2,25,1903,79177,117335,4111,519,12.6,3592,87.4,2744,66.7,350,8.5,0,0,306,7.4,0,0,110,2.7,82,2,514
Boston Day and Evening Academy Charter (District) - Boston Day and Evening Academy Charter School,11,496,,489,Massachusetts,42.3269128,-71.0817232,20 Kearsarge Avenue,2119,Suffolk County,Boston,25025,"20 Kearsarge Avenue, Boston, Massachusetts, 02119",80300,25025080300,2022,80300,Suffolk County,Massachusetts,233,45,143,6,39,1414,104,190,219,317,65,278,241,19.3,61.4,2.6,16.7,7.4,13.4,15.5,22.4,4.6,19.7,17,939,43953,56118,2059,687,33.4,1372,66.6,266,12.9,927,45,0,0,75,3.6,0,0,35,1.7,69,3.4,496
Boston Green Academy Horace Mann Charter School (District) - Boston Green Academy Horace Mann Charter School,82,415,,390,Massachusetts,42.3501875,-71.1459375,20 Warren Street,2135,Suffolk County,Boston,25025,"20 Warren Street, Boston, Massachusetts, 02135",604,25025000604,2022,604,Suffolk County,Massachusetts,768,5,29,253,481,1419,17,31,326,88,41,552,364,0.7,3.8,32.9,62.6,1.2,2.2,23,6.2,2.9,38.9,25.7,1140,52155,74365,2347,208,8.9,2139,91.1,1216,51.8,68,2.9,0,0,752,32,0,0,0,0,103,4.4,415
Boston Preparatory Charter Public (District) - Boston Preparatory Charter Public School,69,437,,444,Massachusetts,42.2621129,-71.1105516,885 River Street,2136,Suffolk County,Boston,25025,"885 River Street, Boston, Massachusetts, 02136",140300,25025140300,2022,140300,Suffolk County,Massachusetts,610,120,173,291,26,5878,397,168,1688,1005,767,1319,534,19.7,28.4,47.7,4.3,6.8,2.9,28.7,17.1,13,22.4,9.1,2749,87364,89977,7857,2150,27.4,5707,72.6,789,10,4918,62.6,0,0,0,0,0,0,0,0,0,0,437
Bourne - Bourne High School,130,534,,500,Massachusetts,41.7381777,-70.5923188,75 Waterhouse Road,2532,Barnstable County,Bourne,25001,"75 Waterhouse Road, Bourne, Massachusetts, 02532",13900,25001013900,2022,13900,Barnstable County,Massachusetts,326,128,0,163,35,3716,16,0,632,779,381,1111,797,39.3,0,50,10.7,0.4,0,17,21,10.3,29.9,21.4,2314,85429,116276,5046,4,0.1,5042,99.9,4539,90,0,0,0,0,51,1,0,0,406,8,46,0.9,534
Braintree - Braintree High,444,562,,568,Massachusetts,42.2079017,-71.0040013,,N/A,Norfolk County,Braintree,25021,,419800,25021419800,2022,419800,Norfolk County,Massachusetts,287,35,87,89,76,3208,186,102,757,409,381,719,654,12.2,30.3,31,26.5,5.8,3.2,23.6,12.7,11.9,22.4,20.4,1753,91587,118137,4402,95,2.2,4307,97.8,3201,72.7,174,4,4,0.1,690,15.7,0,0,113,2.6,125,2.8,562
Bridgewater-Raynham - Bridgewater-Raynham Regional,273,553,,551,Massachusetts,41.9911025,-70.993044,415 Center Street,2324,Plymouth County,Bridgewater,25023,"415 Center Street, Bridgewater, Massachusetts, 02324",525101,25023525101,2022,525101,Plymouth County,Massachusetts,814,20,332,318,144,4702,16,271,1262,833,497,1054,769,2.5,40.8,39.1,17.7,0.3,5.8,26.8,17.7,10.6,22.4,16.4,2940,92800,114511,7075,187,2.6,6888,97.4,5968,84.4,506,7.2,0,0,39,0.6,0,0,31,0.4,344,4.9,553
Bristol-Plymouth Regional Vocational Technical - Bristol-Plymouth Vocational Technical,99,506,,510,Massachusetts,41.8791783,-71.0566209,207 Hart Street,2780,Bristol County,Taunton,25005,"207 Hart Street, Taunton, Massachusetts, 02780",614101,25005614101,2022,614101,Bristol County,Massachusetts,599,90,176,231,102,4553,231,235,1636,934,362,762,393,15,29.4,38.6,17,5.1,5.2,35.9,20.5,8,16.7,8.6,2609,72762,96837,6745,379,5.6,6366,94.4,5282,78.3,404,6,0,0,271,4,0,0,0,0,409,6.1,506
Brockton - Brockton High,228,509,,500,Massachusetts,42.0672472,-71.0446472,702 Belmont Street,2301,Plymouth County,Brockton,25023,"702 Belmont Street, Brockton, Massachusetts, 02301",511701,25023511701,2022,511701,Plymouth County,Massachusetts,451,39,162,154,96,3832,262,224,1351,855,272,630,238,8.6,35.9,34.1,21.3,6.8,5.8,35.3,22.3,7.1,16.4,6.2,1677,118146,120243,5364,444,8.3,4920,91.7,2529,47.1,1609,30,0,0,157,2.9,0,0,442,8.2,183,3.4,509
Brockton - Brockton Virtual Learning Academy,1,,,,Massachusetts,42.0626965,-71.0196422,1121 Warren Avenue,2301,Plymouth County,Brockton,25023,"1121 Warren Avenue, Brockton, Massachusetts, 02301",511601,25023511601,2022,511601,Plymouth County,Massachusetts,460,92,122,246,0,2064,32,237,745,334,259,275,182,20,26.5,53.5,0,1.6,11.5,36.1,16.2,12.5,13.3,8.8,1174,82115,117757,3807,376,9.9,3431,90.1,1201,31.5,1761,46.3,0,0,0,0,0,0,0,0,469,12.3,0
Brooke Charter School (District) - Brooke Charter School,124,490,,528,Massachusetts,42.4072107,-71.3824374,,N/A,Middlesex County,N/A,25017,,365100,25017365100,2022,365100,Middlesex County,Massachusetts,429,153,139,40,97,5206,32,0,316,177,66,2162,2453,35.7,32.4,9.3,22.6,0.6,0,6.1,3.4,1.3,41.5,47.1,2556,250001,325238,8049,75,0.9,7974,99.1,6482,80.5,245,3,0,0,750,9.3,23,0.3,58,0.7,416,5.2,490
Brookline - Brookline High,416,644,,650,Massachusetts,42.3319563,-71.1287013,66 Tappan Street,2445,Norfolk County,Brookline,25021,"66 Tappan Street, Brookline, Massachusetts, 02445",400700,25021400700,2022,400700,Norfolk County,Massachusetts,553,21,31,162,339,2477,22,10,22,73,43,645,1662,3.8,5.6,29.3,61.3,0.9,0.4,0.9,2.9,1.7,26,67.1,1554,143846,224064,3691,121,3.3,3570,96.7,3044,82.5,41,1.1,0,0,388,10.5,0,0,20,0.5,77,2.1,644
Burlington - Burlington High,184,584,,575,Massachusetts,42.4965176,-71.1976069,123 Cambridge Street,1803,Middlesex County,Burlington,25017,"123 Cambridge Street, Burlington, Massachusetts, 01803",332401,25017332401,2022,332401,Middlesex County,Massachusetts,192,32,53,65,42,1868,41,85,441,127,202,567,405,16.7,27.6,33.9,21.9,2.2,4.6,23.6,6.8,10.8,30.4,21.7,867,134659,160813,2426,15,0.6,2411,99.4,1678,69.2,18,0.7,0,0,500,20.6,0,0,0,0,215,8.9,584
Cambridge - Cambridge Rindge and Latin,341,604,,590,Massachusetts,42.3743528,-71.111566,459 Broadway Court,2138,Middlesex County,Cambridge,25017,"459 Broadway Court, Cambridge, Massachusetts, 02138",353700,25017353700,2022,353700,Middlesex County,Massachusetts,2540,14,501,1673,352,2877,55,29,109,168,37,909,1570,0.6,19.7,65.9,13.9,1.9,1,3.8,5.8,1.3,31.6,54.6,1617,94306,157247,5757,585,10.2,5172,89.8,3193,55.5,405,7,0,0,1336,23.2,2,0,14,0.2,222,3.9,604
Canton - Canton High,281,565,,569,Massachusetts,42.1628296,-71.1452976,900 Washington Street,2021,Norfolk County,Canton,25021,"900 Washington Street, Canton, Massachusetts, 02021",415101,25021415101,2022,415101,Norfolk County,Massachusetts,285,12,113,83,77,3971,30,39,601,410,188,1501,1202,4.2,39.6,29.1,27,0.8,1,15.1,10.3,4.7,37.8,30.3,1910,152024,199870,5574,403,7.2,5171,92.8,4105,73.6,621,11.1,0,0,419,7.5,0,0,0,0,26,0.5,565
Cape Cod Regional Vocational Technical - Cape Cod Region Vocational Technical,20,516,,491,Massachusetts,41.7108725,-70.075615,351 Pleasant Lake Avenue,2645,Barnstable County,Harwich,25001,"351 Pleasant Lake Avenue, Harwich, Massachusetts, 02645",11100,25001011100,2022,11100,Barnstable County,Massachusetts,382,60,178,26,118,4287,21,32,1051,899,470,873,941,15.7,46.6,6.8,30.9,0.5,0.7,24.5,21,11,20.4,22,2367,91801,114654,5285,0,0,5285,100,5265,99.6,6,0.1,0,0,14,0.3,0,0,0,0,0,0,516
Carver - Carver Middle/High School,79,543,,528,Massachusetts,41.8938703,-70.7559996,60 Crusader Drive,2330,Plymouth County,Carver,25023,"60 Crusader Drive, Carver, Massachusetts, 02330",544200,25023544200,2022,544200,Plymouth County,Massachusetts,581,72,179,162,168,4538,108,224,1796,837,505,530,538,12.4,30.8,27.9,28.9,2.4,4.9,39.6,18.4,11.1,11.7,11.9,2610,58250,99533,6019,142,2.4,5877,97.6,5416,90,0,0,0,0,80,1.3,0,0,3,0,378,6.3,543
Central Berkshire - Wahconah Regional High,65,536,,530,Massachusetts,42.473047,-73.1395525,150 Old Windsor Road,1226,Berkshire County,Dalton,25003,"150 Old Windsor Road, Dalton, Massachusetts, 01226",912100,25003912100,2022,912100,Berkshire County,Massachusetts,328,23,177,97,31,4748,75,130,1349,865,385,1046,898,7,54,29.6,9.5,1.6,2.7,28.4,18.2,8.1,22,18.9,2884,76198,102546,6332,183,2.9,6149,97.1,5944,93.9,5,0.1,0,0,73,1.2,0,0,0,0,127,2,536
Chelmsford - Chelmsford High,284,579,,583,Massachusetts,42.5969277,-71.3514509,,N/A,Middlesex County,Chelmsford,25017,,317101,25017317101,2022,317101,Middlesex County,Massachusetts,494,93,90,33,278,5036,44,198,810,697,698,1296,1293,18.8,18.2,6.7,56.3,0.9,3.9,16.1,13.8,13.9,25.7,25.7,3061,99201,132190,6516,536,8.2,5980,91.8,5085,78,14,0.2,0,0,636,9.8,0,0,0,0,245,3.8,579
Chelsea - Chelsea High,65,474,,472,Massachusetts,42.4000032,-71.0400474,299 Everett Avenue,2150,Suffolk County,Chelsea,25025,"299 Everett Avenue, Chelsea, Massachusetts, 02150",160400,25025160400,2022,160400,Suffolk County,Massachusetts,368,91,122,30,125,2274,504,175,391,357,51,509,287,24.7,33.2,8.2,34,22.2,7.7,17.2,15.7,2.2,22.4,12.6,1461,77695,96734,3281,1771,54,1510,46,923,28.1,302,9.2,0,0,119,3.6,0,0,16,0.5,150,4.6,474
Chicopee - Chicopee Academy,1,,,,Massachusetts,42.1542189,-72.5755595,10 Southwick Street,1020,Hampden County,Chicopee,25013,"10 Southwick Street, Chicopee, Massachusetts, 01020",810700,25013810700,2022,810700,Hampden County,Massachusetts,740,138,205,304,93,4411,86,557,1641,831,397,460,439,18.6,27.7,41.1,12.6,1.9,12.6,37.2,18.8,9,10.4,10,2584,62159,71908,6383,1671,26.2,4712,73.8,3646,57.1,652,10.2,2,0,99,1.6,0,0,0,0,313,4.9,0
Chicopee - Chicopee Comprehensive High School,72,544,,531,Massachusetts,42.1771386,-72.5908973,617 Montgomery Street,1020,Hampden County,Chicopee,25013,"617 Montgomery Street, Chicopee, Massachusetts, 01020",811200,25013811200,2022,811200,Hampden County,Massachusetts,469,46,147,260,16,3073,115,308,1151,550,309,346,294,9.8,31.3,55.4,3.4,3.7,10,37.5,17.9,10.1,11.3,9.6,1918,71563,83839,4165,338,8.1,3827,91.9,3489,83.8,32,0.8,0,0,245,5.9,0,0,0,0,61,1.5,544
Chicopee - Chicopee High,48,554,,519,Massachusetts,42.14931,-72.586312,,1020,Hampden County,Chicopee,25013,,810800,25013810800,2022,810800,Hampden County,Massachusetts,295,2,159,78,56,2983,128,355,1048,541,308,483,120,0.7,53.9,26.4,19,4.3,11.9,35.1,18.1,10.3,16.2,4,1853,54046,72786,4247,1418,33.4,2829,66.6,2536,59.7,234,5.5,0,0,0,0,0,0,0,0,59,1.4,554
City on a Hill Charter Public School (District) - City on a Hill Charter Public School,6,,,,Massachusetts,42.3239441,-71.0874275,58 Circuit Street,2119,Suffolk County,Boston,25025,"58 Circuit Street, Boston, Massachusetts, 02119",81700,25025081700,2022,81700,Suffolk County,Massachusetts,324,119,146,43,16,2820,292,207,779,475,186,591,290,36.7,45.1,13.3,4.9,10.4,7.3,27.6,16.8,6.6,21,10.3,2080,31007,54437,3862,932,24.1,2930,75.9,245,6.3,2394,62,0,0,166,4.3,0,0,0,0,125,3.2,0
Clinton - Clinton Senior High,44,528,,508,Massachusetts,42.4072107,-71.3824374,,N/A,Middlesex County,N/A,25017,,365100,25017365100,2022,365100,Middlesex County,Massachusetts,429,153,139,40,97,5206,32,0,316,177,66,2162,2453,35.7,32.4,9.3,22.6,0.6,0,6.1,3.4,1.3,41.5,47.1,2556,250001,325238,8049,75,0.9,7974,99.1,6482,80.5,245,3,0,0,750,9.3,23,0.3,58,0.7,416,5.2,528
Codman Academy Charter Public (District) - Codman Academy Charter Public School,39,416,,402,Massachusetts,42.2896241,-71.0711895,637 Washington Street,2124,Suffolk County,Boston,25025,"637 Washington Street, Boston, Massachusetts, 02124",100500,25025100500,2022,100500,Suffolk County,Massachusetts,800,220,152,247,181,5103,529,301,1063,659,269,1196,1086,27.5,19,30.9,22.6,10.4,5.9,20.8,12.9,5.3,23.4,21.3,2643,58828,87656,7627,1239,16.2,6388,83.8,1240,16.3,3726,48.9,17,0.2,624,8.2,0,0,78,1,703,9.2,416
Cohasset - Cohasset High School,131,604,,577,Massachusetts,42.232393,-70.8096798,143 Pond Street,2025,Norfolk County,Cohasset,25021,"143 Pond Street, Cohasset, Massachusetts, 02025",423101,25021423101,2022,423101,Norfolk County,Massachusetts,140,0,81,12,47,2613,9,5,175,322,161,1108,833,0,57.9,8.6,33.6,0.3,0.2,6.7,12.3,6.2,42.4,31.9,1416,177667,285897,3679,95,2.6,3584,97.4,3348,91,19,0.5,32,0.9,11,0.3,55,1.5,68,1.8,51,1.4,604
Collegiate Charter School of Lowell (District) - Collegiate Charter School of Lowell,15,517,,536,Massachusetts,42.636604,-71.3578963,1857 Middlesex Street,1851,Middlesex County,Lowell,25017,"1857 Middlesex Street, Lowell, Massachusetts, 01851",311400,25017311400,2022,311400,Middlesex County,Massachusetts,876,52,433,257,134,4435,187,91,1137,445,376,1334,865,5.9,49.4,29.3,15.3,4.2,2.1,25.6,10,8.5,30.1,19.5,2596,84618,92717,6780,972,14.3,5808,85.7,2487,36.7,1063,15.7,63,0.9,1899,28,0,0,0,0,296,4.4,517
Community Charter School of Cambridge (District) - Community Charter School of Cambridge,55,497,,493,Massachusetts,42.3676978,-71.0851986,245 Bent Street,2141,Middlesex County,Cambridge,25017,"245 Bent Street, Cambridge, Massachusetts, 02141",352300,25017352300,2022,352300,Middlesex County,Massachusetts,646,0,79,125,442,3782,52,30,221,288,174,1283,1734,0,12.2,19.3,68.4,1.4,0.8,5.8,7.6,4.6,33.9,45.8,2360,152500,187258,4971,278,5.6,4693,94.4,2627,52.8,252,5.1,0,0,1568,31.5,10,0.2,8,0.2,228,4.6,497
Concord-Carlisle - Concord Carlisle High,291,644,,648,Massachusetts,42.4981821,-71.3586855,,N/A,Middlesex County,N/A,25017,,361300,25017361300,2022,361300,Middlesex County,Massachusetts,445,37,143,191,74,4205,22,27,211,56,141,1365,2383,8.3,32.1,42.9,16.6,0.5,0.6,5,1.3,3.4,32.5,56.7,2155,201202,314975,6247,286,4.6,5961,95.4,5287,84.6,88,1.4,34,0.5,234,3.7,0,0,45,0.7,273,4.4,644
Danvers - Danvers High,123,552,,528,Massachusetts,42.5821203,-70.9313851,60 Cabot Road,1923,Essex County,Danvers,25009,"60 Cabot Road, Danvers, Massachusetts, 01923",211300,25009211300,2022,211300,Essex County,Massachusetts,651,206,137,101,207,5061,133,94,1206,751,311,1772,794,31.6,21,15.5,31.8,2.6,1.9,23.8,14.8,6.1,35,15.7,2531,124898,161097,7152,67,0.9,7085,99.1,6599,92.3,261,3.6,0,0,101,1.4,67,0.9,0,0,57,0.8,552
Dartmouth - Dartmouth High,207,556,,548,Massachusetts,41.5940391,-70.9780713,555 Bakerville Road,2748,Bristol County,Dartmouth,25005,"555 Bakerville Road, Dartmouth, Massachusetts, 02748",653301,25005653301,2022,653301,Bristol County,Massachusetts,297,37,185,71,4,4080,453,13,1026,357,353,1008,870,12.5,62.3,23.9,1.3,11.1,0.3,25.1,8.8,8.7,24.7,21.3,2264,108500,143666,5039,71,1.4,4968,98.6,4429,87.9,40,0.8,0,0,167,3.3,0,0,4,0.1,328,6.5,556
Dedham - Dedham High,167,543,,561,Massachusetts,42.2436085,-71.1676536,,N/A,Norfolk County,Dedham,25021,,402400,25021402400,2022,402400,Norfolk County,Massachusetts,678,47,127,202,302,4545,53,147,881,575,265,1366,1258,6.9,18.7,29.8,44.5,1.2,3.2,19.4,12.7,5.8,30.1,27.7,2853,115605,154231,6377,389,6.1,5988,93.9,5634,88.3,256,4,0,0,63,1,0,0,27,0.4,8,0.1,543
Dennis-Yarmouth - Dennis-Yarmouth Regional High,106,550,,518,Massachusetts,41.6774436,-70.1942316,210 Station Avenue,2664,Barnstable County,Yarmouth,25001,"210 Station Avenue, Yarmouth, Massachusetts, 02664",12001,25001012001,2022,12001,Barnstable County,Massachusetts,449,4,302,112,31,5176,111,170,1520,998,425,1055,897,0.9,67.3,24.9,6.9,2.1,3.3,29.4,19.3,8.2,20.4,17.3,2700,76537,110108,6050,257,4.2,5793,95.8,5041,83.3,71,1.2,0,0,375,6.2,0,0,0,0,306,5.1,550
Dighton-Rehoboth - Dighton-Rehoboth Regional High School,104,557,,540,Massachusetts,41.852654,-71.1969072,2700 Regional Road,2764,Bristol County,Dighton,25005,"2700 Regional Road, Dighton, Massachusetts, 02764",615100,25005615100,2022,615100,Bristol County,Massachusetts,654,40,155,303,156,5841,119,114,1757,1244,691,1189,727,6.1,23.7,46.3,23.9,2,2,30.1,21.3,11.8,20.4,12.4,2911,116712,131917,8083,206,2.5,7877,97.5,7370,91.2,6,0.1,0,0,0,0,68,0.8,215,2.7,218,2.7,557
Douglas - Douglas High School,59,592,,547,Massachusetts,42.4072107,-71.3824374,,N/A,Middlesex County,N/A,25017,,365100,25017365100,2022,365100,Middlesex County,Massachusetts,429,153,139,40,97,5206,32,0,316,177,66,2162,2453,35.7,32.4,9.3,22.6,0.6,0,6.1,3.4,1.3,41.5,47.1,2556,250001,325238,8049,75,0.9,7974,99.1,6482,80.5,245,3,0,0,750,9.3,23,0.3,58,0.7,416,5.2,592
Dover-Sherborn - Dover-Sherborn Regional High,171,643,,645,Massachusetts,42.2354154,-71.3230549,,N/A,Norfolk County,N/A,25021,,405100,25021405100,2022,405100,Norfolk County,Massachusetts,525,65,115,153,192,3777,37,28,104,205,91,1232,2080,12.4,21.9,29.1,36.6,1,0.7,2.8,5.4,2.4,32.6,55.1,1887,250001,436767,5886,158,2.7,5728,97.3,4514,76.7,99,1.7,0,0,753,12.8,0,0,50,0.8,312,5.3,643
Dracut - Dracut Senior High,157,522,,526,Massachusetts,42.674872,-71.351141,,1826,Middlesex County,Dracut,25017,,314102,25017314102,2022,314102,Middlesex County,Massachusetts,510,225,191,74,20,5694,136,215,2057,918,277,1483,608,44.1,37.5,14.5,3.9,2.4,3.8,36.1,16.1,4.9,26,10.7,3092,98506,104667,7518,713,9.5,6805,90.5,5954,79.2,524,7,0,0,327,4.3,0,0,0,0,0,0,522
Dudley-Charlton Reg - Shepherd Hill Regional High,166,563,,559,Massachusetts,42.0536424,-71.9184566,68 Dudley Oxford Road,1571,Worcester County,Dudley,25027,"68 Dudley Oxford Road, Dudley, Massachusetts, 01571",755201,25027755201,2022,755201,Worcester County,Massachusetts,215,3,97,82,33,2932,0,127,919,602,251,652,381,1.4,45.1,38.1,15.3,0,4.3,31.3,20.5,8.6,22.2,13,1464,114600,119288,4216,27,0.6,4189,99.4,3629,86.1,206,4.9,0,0,271,6.4,0,0,46,1.1,37,0.9,563
Duxbury - Duxbury High,220,597,,580,Massachusetts,42.0514587,-70.6781767,130 Saint George Street,2332,Plymouth County,Duxbury,25023,"130 Saint George Street, Duxbury, Massachusetts, 02332",507104,25023507104,2022,507104,Plymouth County,Massachusetts,490,192,43,108,147,4568,31,363,496,491,221,1639,1327,39.2,8.8,22,30,0.7,7.9,10.9,10.7,4.8,35.9,29,2441,118725,188632,6336,134,2.1,6202,97.9,6021,95,61,1,0,0,0,0,0,0,22,0.3,98,1.5,597
East Bridgewater - East Bridgewater JR./SR. High School,89,554,,529,Massachusetts,42.0275499,-70.9565839,143 Plymouth Street,2333,Plymouth County,East Bridgewater,25023,"143 Plymouth Street, East Bridgewater, Massachusetts, 02333",523100,25023523100,2022,523100,Plymouth County,Massachusetts,320,34,58,113,115,2287,66,61,620,427,260,576,277,10.6,18.1,35.3,35.9,2.9,2.7,27.1,18.7,11.4,25.2,12.1,1164,123310,125593,3583,218,6.1,3365,93.9,3199,89.3,32,0.9,0,0,10,0.3,0,0,75,2.1,49,1.4,554
East Longmeadow - East Longmeadow High,140,582,,573,Massachusetts,42.0645396,-72.5125863,,1028,Hampden County,East Longmeadow,25013,,813403,25013813403,2022,813403,Hampden County,Massachusetts,359,28,65,227,39,2761,15,128,690,435,151,764,578,7.8,18.1,63.2,10.9,0.5,4.6,25,15.8,5.5,27.7,20.9,1585,91326,120592,3985,263,6.6,3722,93.4,3281,82.3,141,3.5,0,0,58,1.5,0,0,0,0,242,6.1,582
Easthampton - Easthampton High,44,559,,536,Massachusetts,42.2602275,-72.6710672,70 Williston Avenue,1027,Hampshire County,Easthampton,25015,"70 Williston Avenue, Easthampton, Massachusetts, 01027",822402,25015822402,2022,822402,Hampshire County,Massachusetts,513,71,143,62,237,3675,21,259,913,646,239,963,634,13.8,27.9,12.1,46.2,0.6,7,24.8,17.6,6.5,26.2,17.3,2666,49012,78943,4903,649,13.2,4254,86.8,3863,78.8,30,0.6,0,0,10,0.2,0,0,97,2,254,5.2,559
Easton - Oliver Ames High,280,568,,566,Massachusetts,42.0551495,-71.1112498,100 Lothrop Street,2356,Bristol County,Easton,25005,"100 Lothrop Street, Easton, Massachusetts, 02356",600100,25005600100,2022,600100,Bristol County,Massachusetts,204,6,83,74,41,3311,23,83,714,486,192,953,860,2.9,40.7,36.3,20.1,0.7,2.5,21.6,14.7,5.8,28.8,26,1858,88300,131640,4165,152,3.6,4013,96.4,3261,78.3,429,10.3,8,0.2,0,0,0,0,197,4.7,118,2.8,568
Edward M. Kennedy Academy for Health Careers (Horace Mann Charter) (District) - Edward M. Kennedy Academy for Health Careers (Horace Mann Charter School),146,428,,410,Massachusetts,42.4072107,-71.3824374,,N/A,Middlesex County,N/A,25017,,365100,25017365100,2022,365100,Middlesex County,Massachusetts,429,153,139,40,97,5206,32,0,316,177,66,2162,2453,35.7,32.4,9.3,22.6,0.6,0,6.1,3.4,1.3,41.5,47.1,2556,250001,325238,8049,75,0.9,7974,99.1,6482,80.5,245,3,0,0,750,9.3,23,0.3,58,0.7,416,5.2,428
Essex North Shore Agricultural and Technical School District - Essex North Shore Agricultural and Technical School,298,529,,501,Massachusetts,42.5916245,-70.9786874,565 Maple Street,1923,Essex County,Danvers,25009,"565 Maple Street, Danvers, Massachusetts, 01923",211401,25009211401,2022,211401,Essex County,Massachusetts,271,6,88,154,23,3148,38,218,717,391,318,843,623,2.2,32.5,56.8,8.5,1.2,6.9,22.8,12.4,10.1,26.8,19.8,1650,100671,126006,4114,337,8.2,3777,91.8,3355,81.6,171,4.2,0,0,125,3,0,0,44,1.1,82,2,529
Everett - Everett High,281,495,,474,Massachusetts,42.4142811,-71.0434892,100 Elm Street,2149,Middlesex County,Everett,25017,"100 Elm Street, Everett, Massachusetts, 02149",342102,25017342102,2022,342102,Middlesex County,Massachusetts,358,68,170,44,76,3424,372,454,1062,759,171,315,291,19,47.5,12.3,21.2,10.9,13.3,31,22.2,5,9.2,8.5,1602,73582,101368,4827,957,19.8,3870,80.2,1579,32.7,1118,23.2,0,0,805,16.7,0,0,189,3.9,179,3.7,495
Excel Academy Charter (District) - Excel Academy Charter School,165,475,,484,Massachusetts,42.4072107,-71.3824374,,N/A,Middlesex County,N/A,25017,,365100,25017365100,2022,365100,Middlesex County,Massachusetts,429,153,139,40,97,5206,32,0,316,177,66,2162,2453,35.7,32.4,9.3,22.6,0.6,0,6.1,3.4,1.3,41.5,47.1,2556,250001,325238,8049,75,0.9,7974,99.1,6482,80.5,245,3,0,0,750,9.3,23,0.3,58,0.7,416,5.2,475
Fairhaven - Fairhaven High,116,542,,555,Massachusetts,41.643603,-70.9053908,12 Huttleston Avenue,2719,Bristol County,Fairhaven,25005,"12 Huttleston Avenue, Fairhaven, Massachusetts, 02719",655200,25005655200,2022,655200,Bristol County,Massachusetts,434,56,98,252,28,3607,199,134,1130,734,522,745,143,12.9,22.6,58.1,6.5,5.5,3.7,31.3,20.3,14.5,20.7,4,2341,57917,88189,4671,96,2.1,4575,97.9,4400,94.2,5,0.1,22,0.5,91,1.9,0,0,5,0.1,52,1.1,542
Fall River - B M C Durfee High,163,510,,500,Massachusetts,41.716159,-71.1265863,460 Elsbree Street,2720,Bristol County,Fall River,25005,"460 Elsbree Street, Fall River, Massachusetts, 02720",642400,25005642400,2022,642400,Bristol County,Massachusetts,197,15,115,59,8,2351,216,169,651,316,323,412,264,7.6,58.4,29.9,4.1,9.2,7.2,27.7,13.4,13.7,17.5,11.2,1319,74653,90123,3147,221,7,2926,93,2671,84.9,23,0.7,0,0,26,0.8,0,0,1,0,205,6.5,510
Fall River - Resiliency Preparatory Academy,1,,,,Massachusetts,41.7058118,-71.1529718,290 Rock Street,2720,Bristol County,Fall River,25005,"290 Rock Street, Fall River, Massachusetts, 02720",641900,25005641900,2022,641900,Bristol County,Massachusetts,209,43,78,42,46,1627,234,327,451,362,86,84,83,20.6,37.3,20.1,22,14.4,20.1,27.7,22.2,5.3,5.2,5.1,1088,41667,52800,2432,558,22.9,1874,77.1,1288,53,363,14.9,0,0,121,5,0,0,12,0.5,90,3.7,0
Falmouth - Falmouth High,127,592,,573,Massachusetts,41.5926929,-70.6062198,874 Gifford Street Extension,2540,Barnstable County,Falmouth,25001,"874 Gifford Street Extension, Falmouth, Massachusetts, 02540",14402,25001014402,2022,14402,Barnstable County,Massachusetts,290,62,91,112,25,5728,151,270,752,1035,613,1756,1151,21.4,31.4,38.6,8.6,2.6,4.7,13.1,18.1,10.7,30.7,20.1,2839,99047,140090,7399,476,6.4,6923,93.6,6318,85.4,7,0.1,35,0.5,347,4.7,0,0,63,0.9,153,2.1,592
Fitchburg - Fitchburg High,239,467,,454,Massachusetts,42.6210878,-71.807778,140 Arnhow Farm Road,1420,Worcester County,Fitchburg,25027,"140 Arnhow Farm Road, Fitchburg, Massachusetts, 01420",711100,25027711100,2022,711100,Worcester County,Massachusetts,931,79,401,434,17,3465,92,148,1094,694,228,803,406,8.5,43.1,46.6,1.8,2.7,4.3,31.6,20,6.6,23.2,11.7,1585,110264,124586,5136,942,18.3,4194,81.7,3741,72.8,221,4.3,0,0,73,1.4,0,0,13,0.3,146,2.8,467
Four Rivers Charter Public (District) - Four Rivers Charter Public School,25,607,,552,Massachusetts,42.5964793,-72.6208418,248 Colrain Road,1301,Franklin County,Greenfield,25011,"248 Colrain Road, Greenfield, Massachusetts, 01301",41000,25011041000,2022,41000,Franklin County,Massachusetts,143,42,59,42,0,2334,24,176,525,422,268,505,414,29.4,41.3,29.4,0,1,7.5,22.5,18.1,11.5,21.6,17.7,1425,67591,73162,3223,244,7.6,2979,92.4,2707,84,66,2,0,0,53,1.6,0,0,69,2.1,84,2.6,607
Foxborough - Foxborough High,186,576,,578,Massachusetts,42.0545821,-71.250376,120 South Street,2035,Norfolk County,Foxborough,25021,"120 South Street, Foxborough, Massachusetts, 02035",410100,25021410100,2022,410100,Norfolk County,Massachusetts,631,11,181,249,190,4692,96,89,792,764,268,1698,985,1.7,28.7,39.5,30.1,2,1.9,16.9,16.3,5.7,36.2,21,2685,99119,177896,6814,448,6.6,6366,93.4,5247,77,208,3.1,0,0,630,9.2,0,0,30,0.4,251,3.7,576
Foxborough Regional Charter (District) - Foxborough Regional Charter School,80,570,,525,Massachusetts,42.05689,-71.244916,131 Central Street,2035,Norfolk County,Foxborough,25021,"131 Central Street, Foxborough, Massachusetts, 02035",410100,25021410100,2022,410100,Norfolk County,Massachusetts,631,11,181,249,190,4692,96,89,792,764,268,1698,985,1.7,28.7,39.5,30.1,2,1.9,16.9,16.3,5.7,36.2,21,2685,99119,177896,6814,448,6.6,6366,93.4,5247,77,208,3.1,0,0,630,9.2,0,0,30,0.4,251,3.7,570
Framingham - Framingham High School,460,565,,571,Massachusetts,42.3186128,-71.4030911,115 A Street,1701,Middlesex County,Framingham,25017,"115 A Street, Framingham, Massachusetts, 01701",383700,25017383700,2022,383700,Middlesex County,Massachusetts,599,23,212,174,190,3660,14,166,645,458,233,1279,865,3.8,35.4,29,31.7,0.4,4.5,17.6,12.5,6.4,34.9,23.6,2102,116458,141873,5237,308,5.9,4929,94.1,3853,73.6,167,3.2,0,0,341,6.5,0,0,411,7.8,157,3,565
Francis W. Parker Charter Essential (District) - Francis W. Parker Charter Essential School,55,607,,560,Massachusetts,42.5489,-71.6063,49 Antietam Street,1434,Middlesex County,Ayer,25017,"49 Antietam Street, Ayer, Massachusetts, 01434",325102,25017325102,2022,325102,Middlesex County,Massachusetts,169,19,100,35,15,3464,267,255,778,602,393,788,381,11.2,59.2,20.7,8.9,7.7,7.4,22.5,17.4,11.3,22.7,11,2014,81250,97103,4354,822,18.9,3532,81.1,3010,69.1,225,5.2,8,0.2,175,4,0,0,0,0,114,2.6,607
Franklin - Franklin High,508,583,,569,Massachusetts,42.0937748,-71.409295,218 Oak Street,2038,Norfolk County,Franklin,25021,"218 Oak Street, Franklin, Massachusetts, 02038",442104,25021442104,2022,442104,Norfolk County,Massachusetts,381,38,184,94,65,4052,127,0,684,878,279,1269,815,10,48.3,24.7,17.1,3.1,0,16.9,21.7,6.9,31.3,20.1,2083,139396,150207,5406,224,4.1,5182,95.9,4461,82.5,0,0,0,0,516,9.5,0,0,0,0,205,3.8,583
Franklin County Regional Vocational Technical - Franklin County Technical,10,510,,479,Massachusetts,42.5979423,-72.5219039,82 Industrial Boulevard,1376,Franklin County,Montague,25011,"82 Industrial Boulevard, Montague, Massachusetts, 01376",40702,25011040702,2022,40702,Franklin County,Massachusetts,122,15,23,33,51,3627,126,158,1055,613,338,705,632,12.3,18.9,27,41.8,3.5,4.4,29.1,16.9,9.3,19.4,17.4,1929,83429,87339,4606,12,0.3,4594,99.7,4340,94.2,29,0.6,4,0.1,49,1.1,0,0,24,0.5,148,3.2,510
Freetown-Lakeville - Apponequet Regional High,126,580,,568,Massachusetts,41.7920906,-70.9817259,100 Howland Road,2347,Plymouth County,Lakeville,25023,"100 Howland Road, Lakeville, Massachusetts, 02347",540103,25023540103,2022,540103,Plymouth County,Massachusetts,496,93,194,70,139,3103,13,216,499,544,505,840,486,18.8,39.1,14.1,28,0.4,7,16.1,17.5,16.3,27.1,15.7,1487,169395,177525,4562,5,0.1,4557,99.9,4395,96.3,7,0.2,0,0,67,1.5,0,0,11,0.2,77,1.7,580
Frontier - Frontier Regional,54,593,,576,Massachusetts,42.4834203,-72.6056126,113 North Main Street,1373,Franklin County,Deerfield,25011,"113 North Main Street, Deerfield, Massachusetts, 01373",40900,25011040900,2022,40900,Franklin County,Massachusetts,321,45,101,156,19,3995,0,101,857,791,473,814,959,14,31.5,48.6,5.9,0,2.5,21.5,19.8,11.8,20.4,24,2241,99917,122206,5125,289,5.6,4836,94.4,4498,87.8,26,0.5,0,0,4,0.1,0,0,0,0,308,6,593
Gardner - Gardner Academy for Learning and Technology,1,,,,Massachusetts,42.5753394,-71.9828528,160 Elm Street,1440,Worcester County,Gardner,25027,"160 Elm Street, Gardner, Massachusetts, 01440",707500,25027707500,2022,707500,Worcester County,Massachusetts,296,117,160,19,0,4625,116,624,1326,872,756,525,406,39.5,54.1,6.4,0,2.5,13.5,28.7,18.9,16.3,11.4,8.8,2101,56283,91588,5748,651,11.3,5097,88.7,4603,80.1,155,2.7,6,0.1,218,3.8,0,0,6,0.1,109,1.9,0
Gardner - Gardner High,100,495,,465,Massachusetts,42.4072107,-71.3824374,,N/A,Middlesex County,N/A,25017,,365100,25017365100,2022,365100,Middlesex County,Massachusetts,429,153,139,40,97,5206,32,0,316,177,66,2162,2453,35.7,32.4,9.3,22.6,0.6,0,6.1,3.4,1.3,41.5,47.1,2556,250001,325238,8049,75,0.9,7974,99.1,6482,80.5,245,3,0,0,750,9.3,23,0.3,58,0.7,416,5.2,495
Gateway - Gateway Regional High,14,595,,549,Massachusetts,42.251203,-72.8701362,12 Littleville Road,1050,Hampshire County,Huntington,25015,"12 Littleville Road, Huntington, Massachusetts, 01050",822601,25015822601,2022,822601,Hampshire County,Massachusetts,163,8,109,46,0,1671,15,118,471,398,131,374,164,4.9,66.9,28.2,0,0.9,7.1,28.2,23.8,7.8,22.4,9.8,949,82917,92866,2328,24,1,2304,99,2224,95.5,35,1.5,5,0.2,0,0,0,0,3,0.1,37,1.6,595
Georgetown - Georgetown High School,69,561,,556,Massachusetts,42.724423,-70.986484,11 Winter Street,1833,Essex County,Georgetown,25009,"11 Winter Street, Georgetown, Massachusetts, 01833",265102,25009265102,2022,265102,Essex County,Massachusetts,309,17,184,10,98,3160,9,44,522,497,238,1114,736,5.5,59.5,3.2,31.7,0.3,1.4,16.5,15.7,7.5,35.3,23.3,1677,163487,173656,4434,32,0.7,4402,99.3,3934,88.7,90,2,0,0,27,0.6,0,0,13,0.3,338,7.6,561
Gill-Montague - Turners Fall High,7,,,,Massachusetts,42.588422,-72.544273,,1351,Franklin County,Montague,25011,,40702,25011040702,2022,40702,Franklin County,Massachusetts,122,15,23,33,51,3627,126,158,1055,613,338,705,632,12.3,18.9,27,41.8,3.5,4.4,29.1,16.9,9.3,19.4,17.4,1929,83429,87339,4606,12,0.3,4594,99.7,4340,94.2,29,0.6,4,0.1,49,1.1,0,0,24,0.5,148,3.2,0
Global Learning Charter Public (District) - Global Learning Charter Public School,21,492,,520,Massachusetts,42.4072107,-71.3824374,,N/A,Middlesex County,N/A,25017,,365100,25017365100,2022,365100,Middlesex County,Massachusetts,429,153,139,40,97,5206,32,0,316,177,66,2162,2453,35.7,32.4,9.3,22.6,0.6,0,6.1,3.4,1.3,41.5,47.1,2556,250001,325238,8049,75,0.9,7974,99.1,6482,80.5,245,3,0,0,750,9.3,23,0.3,58,0.7,416,5.2,492
Gloucester - Gloucester High,90,558,,552,Massachusetts,42.624532,-70.660782,,N/A,Essex County,Gloucester,25009,,221400,25009221400,2022,221400,Essex County,Massachusetts,335,92,79,106,58,2551,175,85,920,294,291,538,248,27.5,23.6,31.6,17.3,6.9,3.3,36.1,11.5,11.4,21.1,9.7,1469,67443,91315,3889,586,15.1,3303,84.9,3021,77.7,0,0,0,0,116,3,0,0,16,0.4,150,3.9,558
Grafton - Grafton High School,215,587,,580,Massachusetts,42.2113653,-71.694987,24 Providence Road,1519,Worcester County,Grafton,25027,"24 Providence Road, Grafton, Massachusetts, 01519",738201,25027738201,2022,738201,Worcester County,Massachusetts,725,48,312,153,212,3015,59,57,299,409,215,1223,753,6.6,43,21.1,29.2,2,1.9,9.9,13.6,7.1,40.6,25,1642,128382,156425,4744,269,5.7,4475,94.3,3645,76.8,165,3.5,0,0,248,5.2,0,0,44,0.9,373,7.9,587
Granby - Granby Jr Sr High School,35,594,,567,Massachusetts,42.2646447,-72.4939328,385 East State Street,1033,Hampshire County,Granby,25015,"385 East State Street, Granby, Massachusetts, 01033",820900,25015820900,2022,820900,Hampshire County,Massachusetts,496,44,132,204,116,4748,147,167,1155,872,548,1114,745,8.9,26.6,41.1,23.4,3.1,3.5,24.3,18.4,11.5,23.5,15.7,2686,102248,130137,6096,217,3.6,5879,96.4,5667,93,122,2,0,0,31,0.5,0,0,0,0,59,1,594
Greater Commonwealth Virtual District - Greater Commonwealth Virtual School,16,577,,560,Massachusetts,42.5884292,-72.6020882,238 Main Street,1301,Franklin County,Greenfield,25011,"238 Main Street, Greenfield, Massachusetts, 01301",41302,25011041302,2022,41302,Franklin County,Massachusetts,190,0,0,62,128,1823,98,196,481,185,231,462,170,0,0,32.6,67.4,5.4,10.8,26.4,10.1,12.7,25.3,9.3,1241,40605,54927,2266,122,5.4,2144,94.6,1878,82.9,128,5.6,0,0,0,0,0,0,34,1.5,104,4.6,577
Greater Fall River Regional Vocational Technical - Diman Regional Vocational Technical High,62,525,,504,Massachusetts,41.6999703,-71.1249976,251 Stonehaven Road,2723,Bristol County,Fall River,25005,"251 Stonehaven Road, Fall River, Massachusetts, 02723",641700,25005641700,2022,641700,Bristol County,Massachusetts,432,86,110,128,108,4013,440,454,1466,765,310,357,221,19.9,25.5,29.6,25,11,11.3,36.5,19.1,7.7,8.9,5.5,2226,64471,97743,4914,54,1.1,4860,98.9,4338,88.3,305,6.2,0,0,19,0.4,0,0,24,0.5,174,3.5,525
Greater Lawrence Regional Vocational Technical - Gr Lawrence Regional Vocational Technical,67,461,,475,Massachusetts,42.6898428,-71.1521324,,1843,Essex County,Lawrence,25009,,251700,25009251700,2022,251700,Essex County,Massachusetts,658,49,256,226,127,4041,354,297,1330,1061,285,498,216,7.4,38.9,34.3,19.3,8.8,7.3,32.9,26.3,7.1,12.3,5.3,2165,87958,111303,5881,4373,74.4,1508,25.6,1074,18.3,40,0.7,0,0,245,4.2,0,0,19,0.3,130,2.2,461
Greater Lowell Regional Vocational Technical - Gr Lowell Regional Vocational Technical,117,508,,497,Massachusetts,42.6539016,-71.3858342,250 Pawtucket Boulevard,1879,Middlesex County,Tyngsborough,25017,"250 Pawtucket Boulevard, Tyngsborough, Massachusetts, 01879",313102,25017313102,2022,313102,Middlesex County,Massachusetts,577,0,408,13,156,3624,41,112,892,741,309,905,624,0,70.7,2.3,27,1.1,3.1,24.6,20.4,8.5,25,17.2,1822,131357,152694,5349,225,4.2,5124,95.8,4373,81.8,173,3.2,0,0,474,8.9,0,0,0,0,104,1.9,508
Greater New Bedford Regional Vocational Technical - Gr New Bedford Vocational Technical,81,518,,510,Massachusetts,41.6897928,-70.9368648,1121 Ashley Boulevard,2745,Bristol County,New Bedford,25005,"1121 Ashley Boulevard, New Bedford, Massachusetts, 02745",650101,25005650101,2022,650101,Bristol County,Massachusetts,695,137,342,193,23,4395,427,384,1362,681,595,713,233,19.7,49.2,27.8,3.3,9.7,8.7,31,15.5,13.5,16.2,5.3,2208,91373,101814,6031,623,10.3,5408,89.7,4688,77.7,81,1.3,0,0,49,0.8,0,0,265,4.4,325,5.4,518
Greenfield - Greenfield High,33,583,,576,Massachusetts,42.60652,-72.59611,,1301,Franklin County,Greenfield,25011,,41200,25011041200,2022,41200,Franklin County,Massachusetts,216,31,91,76,18,2267,27,108,516,511,250,474,381,14.4,42.1,35.2,8.3,1.2,4.8,22.8,22.5,11,20.9,16.8,1372,59965,76497,3100,154,5,2946,95,2846,91.8,17,0.5,0,0,66,2.1,0,0,0,0,17,0.5,583
Groton-Dunstable - Groton Dunstable Regional,189,601,,613,Massachusetts,42.6057805,-71.5486562,,N/A,Middlesex County,N/A,25017,,326102,25017326102,2022,326102,Middlesex County,Massachusetts,365,76,114,86,89,4274,67,88,614,561,238,1435,1271,20.8,31.2,23.6,24.4,1.6,2.1,14.4,13.1,5.6,33.6,29.7,2190,182022,212066,6032,372,6.2,5660,93.8,5201,86.2,37,0.6,0,0,152,2.5,0,0,30,0.5,240,4,601
Hadley - Hopkins Academy,33,568,,532,Massachusetts,42.3412515,-72.5916348,131 Russell Street,1035,Hampshire County,Hadley,25015,"131 Russell Street, Hadley, Massachusetts, 01035",821400,25015821400,2022,821400,Hampshire County,Massachusetts,252,28,29,114,81,4101,29,98,642,667,174,1466,1025,11.1,11.5,45.2,32.1,0.7,2.4,15.7,16.3,4.2,35.7,25,2323,112450,134866,5295,187,3.5,5108,96.5,4802,90.7,5,0.1,0,0,129,2.4,0,0,21,0.4,151,2.9,568
Hamilton-Wenham - Hamilton-Wenham Regional High,106,614,,598,Massachusetts,42.6291344,-70.8484679,775 Bay Road,1982,Essex County,Hamilton,25009,"775 Bay Road, Hamilton, Massachusetts, 01982",215101,25009215101,2022,215101,Essex County,Massachusetts,388,48,164,131,45,3330,34,14,390,318,127,1288,1159,12.4,42.3,33.8,11.6,1,0.4,11.7,9.5,3.8,38.7,34.8,1601,138375,185306,4689,38,0.8,4651,99.2,4244,90.5,15,0.3,0,0,239,5.1,0,0,11,0.2,142,3,614
Hampden Charter School of Science East (District) - Hampden Charter School of Science East,58,546,,534,Massachusetts,42.1029582,-72.6087707,511 Main Street,1089,Hampden County,West Springfield,25013,"511 Main Street, West Springfield, Massachusetts, 01089",812300,25013812300,2022,812300,Hampden County,Massachusetts,671,56,54,544,17,3292,204,293,1404,462,386,474,69,8.3,8,81.1,2.5,6.2,8.9,42.6,14,11.7,14.4,2.1,2318,40390,53073,5026,1363,27.1,3663,72.9,3206,63.8,312,6.2,33,0.7,0,0,0,0,0,0,112,2.2,546
Hampden-Wilbraham - Minnechaug Regional High,188,570,,579,Massachusetts,42.1113103,-72.4451214,621 Main Street,1095,Hampden County,Wilbraham,25013,"621 Main Street, Wilbraham, Massachusetts, 01095",813602,25013813602,2022,813602,Hampden County,Massachusetts,401,10,143,180,68,4544,22,0,727,571,460,1450,1314,2.5,35.7,44.9,17,0.5,0,16,12.6,10.1,31.9,28.9,2304,152434,176570,6607,273,4.1,6334,95.9,5945,90,216,3.3,0,0,41,0.6,0,0,40,0.6,92,1.4,570
Hampshire - Hampshire Regional High,46,608,,591,Massachusetts,42.3027621,-72.7717766,19 Stage Road,1027,Hampshire County,Westhampton,25015,"19 Stage Road, Westhampton, Massachusetts, 01027",822603,25015822603,2022,822603,Hampshire County,Massachusetts,85,19,53,9,4,1178,3,41,258,186,138,296,256,22.4,62.4,10.6,4.7,0.3,3.5,21.9,15.8,11.7,25.1,21.7,643,91771,123727,1519,68,4.5,1451,95.5,1412,93,0,0,0,0,1,0.1,5,0.3,0,0,33,2.2,608
Hanover - Hanover High,159,567,,544,Massachusetts,42.1162217,-70.8476708,,2339,Plymouth County,Hanover,25023,,503102,25023503102,2022,503102,Plymouth County,Massachusetts,681,115,276,165,125,4835,63,82,1048,565,455,1744,878,16.9,40.5,24.2,18.4,1.3,1.7,21.7,11.7,9.4,36.1,18.2,2451,164298,194820,7505,65,0.9,7440,99.1,6968,92.8,84,1.1,0,0,106,1.4,0,0,0,0,282,3.8,567
Harvard - Bromfield,83,642,,631,Massachusetts,42.4984166,-71.5852605,14 Massachusetts Avenue,1451,Worcester County,Harvard,25027,"14 Massachusetts Avenue, Harvard, Massachusetts, 01451",761401,25027761401,2022,761401,Worcester County,Massachusetts,262,38,137,32,55,2986,9,17,212,295,120,1259,1074,14.5,52.3,12.2,21,0.3,0.6,7.1,9.9,4,42.2,36,1427,198346,302030,4287,373,8.7,3914,91.3,3800,88.6,0,0,0,0,87,2,0,0,0,0,27,0.6,642
Hatfield - Smith Academy,19,623,,542,Massachusetts,42.3756055,-72.6006675,34 School Street,1038,Hampshire County,Hatfield,25015,"34 School Street, Hatfield, Massachusetts, 01038",821500,25015821500,2022,821500,Hampshire County,Massachusetts,288,42,90,114,42,2487,29,62,472,546,275,686,417,14.6,31.3,39.6,14.6,1.2,2.5,19,22,11.1,27.6,16.8,1517,83459,104260,3328,213,6.4,3115,93.6,2951,88.7,0,0,0,0,57,1.7,0,0,23,0.7,84,2.5,623
Haverhill - Haverhill High,157,559,,548,Massachusetts,42.7872239,-71.1069812,137 Monument Street,1832,Essex County,Haverhill,25009,"137 Monument Street, Haverhill, Massachusetts, 01832",260700,25009260700,2022,260700,Essex County,Massachusetts,633,100,282,203,48,3398,180,248,1010,816,304,570,270,15.8,44.5,32.1,7.6,5.3,7.3,29.7,24,8.9,16.8,7.9,1812,69955,87590,5405,1413,26.1,3992,73.9,3576,66.2,234,4.3,0,0,8,0.1,0,0,31,0.6,143,2.6,559
Hingham - Hingham High,344,612,,611,Massachusetts,42.2418426,-70.8897712,,N/A,Plymouth County,Hingham,25023,,501101,25023501101,2022,501101,Plymouth County,Massachusetts,188,35,106,36,11,2325,10,21,285,140,300,709,860,18.6,56.4,19.1,5.9,0.4,0.9,12.3,6,12.9,30.5,37,1244,163000,275637,3494,59,1.7,3435,98.3,3233,92.5,49,1.4,0,0,54,1.5,0,0,0,0,99,2.8,612
Holbrook - Holbrook Middle High School,46,545,,529,Massachusetts,42.1485175,-71.0056805,245 South Franklin Street,2343,Norfolk County,Holbrook,25021,"245 South Franklin Street, Holbrook, Massachusetts, 02343",421200,25021421200,2022,421200,Norfolk County,Massachusetts,309,88,65,142,14,4359,281,130,1142,771,464,1161,410,28.5,21,46,4.5,6.4,3,26.2,17.7,10.6,26.6,9.4,2294,102449,121046,5702,427,7.5,5275,92.5,4210,73.8,554,9.7,0,0,377,6.6,0,0,11,0.2,123,2.2,545
Holliston - Holliston High,232,609,,603,Massachusetts,42.2000966,-71.4245049,,1746,Middlesex County,Holliston,25017,,387100,25017387100,2022,387100,Middlesex County,Massachusetts,341,58,99,90,94,3127,75,31,489,332,389,1074,737,17,29,26.4,27.6,2.4,1,15.6,10.6,12.4,34.3,23.6,1779,147875,191902,4406,115,2.6,4291,97.4,3862,87.7,33,0.7,0,0,118,2.7,0,0,158,3.6,120,2.7,609
Holyoke - Holyoke High,73,482,,458,Massachusetts,42.1995868,-72.622305,500 Beech Street,1040,Hampden County,Holyoke,25013,"500 Beech Street, Holyoke, Massachusetts, 01040",812104,25013812104,2022,812104,Hampden County,Massachusetts,485,146,148,165,26,2736,75,402,1031,375,399,248,206,30.1,30.5,34,5.4,2.7,14.7,37.7,13.7,14.6,9.1,7.5,1804,56413,73663,4039,1804,44.7,2235,55.3,2072,51.3,54,1.3,24,0.6,36,0.9,0,0,5,0.1,44,1.1,482
Hoosac Valley Regional - Hoosac Valley High School,39,530,,510,Massachusetts,42.5945587,-73.115036,125 Savoy Road,1225,Berkshire County,Cheshire,25003,"125 Savoy Road, Cheshire, Massachusetts, 01225",923100,25003923100,2022,923100,Berkshire County,Massachusetts,222,0,191,31,0,2543,50,125,627,656,295,514,276,0,86,14,0,2,4.9,24.7,25.8,11.6,20.2,10.9,1547,72485,90394,3239,26,0.8,3213,99.2,2914,90,18,0.6,5,0.2,79,2.4,0,0,0,0,197,6.1,530
Hopedale - Hopedale Jr Sr High,57,584,,566,Massachusetts,42.1288916,-71.5378232,25 Adin Street,1747,Worcester County,Hopedale,25027,"25 Adin Street, Hopedale, Massachusetts, 01747",745100,25027745100,2022,745100,Worcester County,Massachusetts,541,29,223,221,68,3976,68,119,991,649,312,1166,671,5.4,41.2,40.9,12.6,1.7,3,24.9,16.3,7.8,29.3,16.9,2171,120750,147325,6021,209,3.5,5812,96.5,5655,93.9,22,0.4,0,0,22,0.4,0,0,0,0,113,1.9,584
Hopkinton - Hopkinton High,287,620,,635,Massachusetts,42.2173789,-71.5194645,90 Hayden Rowe Street,1748,Middlesex County,Hopkinton,25017,"90 Hayden Rowe Street, Hopkinton, Massachusetts, 01748",320106,25017320106,2022,320106,Middlesex County,Massachusetts,467,55,217,148,47,4470,22,39,580,369,151,1682,1627,11.8,46.5,31.7,10.1,0.5,0.9,13,8.3,3.4,37.6,36.4,2301,192181,315140,6603,247,3.7,6356,96.3,5445,82.5,72,1.1,31,0.5,449,6.8,0,0,77,1.2,282,4.3,620
Hudson - Hudson High,94,574,,565,Massachusetts,42.4072107,-71.3824374,,N/A,Middlesex County,N/A,25017,,365100,25017365100,2022,365100,Middlesex County,Massachusetts,429,153,139,40,97,5206,32,0,316,177,66,2162,2453,35.7,32.4,9.3,22.6,0.6,0,6.1,3.4,1.3,41.5,47.1,2556,250001,325238,8049,75,0.9,7974,99.1,6482,80.5,245,3,0,0,750,9.3,23,0.3,58,0.7,416,5.2,574
Hull - Hull High,55,571,,542,Massachusetts,42.3042433,-70.9207342,180 Main Street,2045,Plymouth County,Hull,25023,"180 Main Street, Hull, Massachusetts, 02045",500101,25023500101,2022,500101,Plymouth County,Massachusetts,200,24,42,81,53,2623,10,23,449,558,175,838,570,12,21,40.5,26.5,0.4,0.9,17.1,21.3,6.7,31.9,21.7,1535,130034,148290,3463,20,0.6,3443,99.4,3193,92.2,8,0.2,0,0,70,2,0,0,99,2.9,73,2.1,571
Innovation Academy Charter (District) - Innovation Academy Charter School,29,638,,650,Massachusetts,42.658621,-71.40814,72 Tyng Road,1879,Middlesex County,Tyngsborough,25017,"72 Tyng Road, Tyngsborough, Massachusetts, 01879",313101,25017313101,2022,313101,Middlesex County,Massachusetts,924,0,406,427,91,4396,130,142,722,771,332,1410,889,0,43.9,46.2,9.8,3,3.2,16.4,17.5,7.6,32.1,20.2,2209,155417,169771,7022,650,9.3,6372,90.7,5473,77.9,54,0.8,0,0,709,10.1,0,0,0,0,136,1.9,638
Ipswich - Ipswich High,126,598,,585,Massachusetts,42.68846,-70.8512003,134 High Street,1938,Essex County,Ipswich,25009,"134 High Street, Ipswich, Massachusetts, 01938",223300,25009223300,2022,223300,Essex County,Massachusetts,516,87,109,245,75,4236,0,25,685,691,416,1239,1180,16.9,21.1,47.5,14.5,0,0.6,16.2,16.3,9.8,29.2,27.9,2178,139239,224266,5833,36,0.6,5797,99.4,5481,94,0,0,0,0,49,0.8,0,0,0,0,267,4.6,598
KIPP Academy Lynn Charter (District) - KIPP Academy Lynn Charter School,6,,,,Massachusetts,42.4676487,-70.9493706,90 High Rock Street,1902,Essex County,Lynn,25009,"90 High Rock Street, Lynn, Massachusetts, 01902",206200,25009206200,2022,206200,Essex County,Massachusetts,1188,202,506,480,0,3653,927,438,1056,529,177,425,101,17,42.6,40.4,0,25.4,12,28.9,14.5,4.8,11.6,2.8,1895,90710,104783,6456,4079,63.2,2377,36.8,814,12.6,1186,18.4,0,0,235,3.6,0,0,0,0,142,2.2,0
King Philip - King Philip Regional High,291,591,,578,Massachusetts,42.0723951,-71.3321485,201 Franklin Street,2093,Norfolk County,Wrentham,25021,"201 Franklin Street, Wrentham, Massachusetts, 02093",441204,25021441204,2022,441204,Norfolk County,Massachusetts,496,0,246,180,70,3845,142,81,804,369,225,1388,836,0,49.6,36.3,14.1,3.7,2.1,20.9,9.6,5.9,36.1,21.7,1937,160878,188804,5551,11,0.2,5540,99.8,5322,95.9,74,1.3,0,0,78,1.4,0,0,0,0,66,1.2,591
Lawrence - Lawrence High School,415,426,,423,Massachusetts,42.6905578,-71.1453908,70-71 North Parish Road,1843,Essex County,Lawrence,25009,"70-71 North Parish Road, Lawrence, Massachusetts, 01843",251700,25009251700,2022,251700,Essex County,Massachusetts,658,49,256,226,127,4041,354,297,1330,1061,285,498,216,7.4,38.9,34.3,19.3,8.8,7.3,32.9,26.3,7.1,12.3,5.3,2165,87958,111303,5881,4373,74.4,1508,25.6,1074,18.3,40,0.7,0,0,245,4.2,0,0,19,0.3,130,2.2,426
Lee - Lee Middle/High School,38,543,,514,Massachusetts,42.3067423,-73.2391076,300 Greylock Street,1238,Berkshire County,Lee,25003,"300 Greylock Street, Lee, Massachusetts, 01238",914100,25003914100,2022,914100,Berkshire County,Massachusetts,267,12,87,131,37,4567,46,41,1305,737,431,948,1059,4.5,32.6,49.1,13.9,1,0.9,28.6,16.1,9.4,20.8,23.2,2520,74074,106970,5765,172,3,5593,97,5252,91.1,36,0.6,15,0.3,140,2.4,0,0,0,0,150,2.6,543
Leicester - Leicester High,49,554,,530,Massachusetts,42.4072107,-71.3824374,,N/A,Middlesex County,N/A,25017,,365100,25017365100,2022,365100,Middlesex County,Massachusetts,429,153,139,40,97,5206,32,0,316,177,66,2162,2453,35.7,32.4,9.3,22.6,0.6,0,6.1,3.4,1.3,41.5,47.1,2556,250001,325238,8049,75,0.9,7974,99.1,6482,80.5,245,3,0,0,750,9.3,23,0.3,58,0.7,416,5.2,554
Lenox - Lenox Memorial High,36,585,,569,Massachusetts,42.3571806,-73.2850138,,N/A,Berkshire County,Lenox,25003,,913100,25003913100,2022,913100,Berkshire County,Massachusetts,593,49,286,199,59,3887,62,166,954,611,163,1168,763,8.3,48.2,33.6,9.9,1.6,4.3,24.5,15.7,4.2,30,19.6,2265,76571,118179,5083,263,5.2,4820,94.8,4655,91.6,52,1,0,0,13,0.3,0,0,0,0,100,2,585
Leominster - Center For Technical Education Innovation,58,537,,532,Massachusetts,42.531589,-71.7778379,122 Granite Street,1453,Worcester County,Leominster,25027,"122 Granite Street, Leominster, Massachusetts, 01453",709100,25027709100,2022,709100,Worcester County,Massachusetts,338,59,144,60,75,3437,57,209,910,699,235,830,497,17.5,42.6,17.8,22.2,1.7,6.1,26.5,20.3,6.8,24.1,14.5,1945,90417,122020,4650,600,12.9,4050,87.1,3266,70.2,207,4.5,0,0,150,3.2,0,0,0,0,427,9.2,537
Leominster - Leominster High School,167,548,,545,Massachusetts,42.5327856,-71.7777534,122 Granite Street,1453,Worcester County,Leominster,25027,"122 Granite Street, Leominster, Massachusetts, 01453",709100,25027709100,2022,709100,Worcester County,Massachusetts,338,59,144,60,75,3437,57,209,910,699,235,830,497,17.5,42.6,17.8,22.2,1.7,6.1,26.5,20.3,6.8,24.1,14.5,1945,90417,122020,4650,600,12.9,4050,87.1,3266,70.2,207,4.5,0,0,150,3.2,0,0,0,0,427,9.2,548
Lexington - Lexington High,677,663,,688,Massachusetts,42.4430198,-71.2333331,251 Waltham Street,2421,Middlesex County,Lexington,25017,"251 Waltham Street, Lexington, Massachusetts, 02421",358400,25017358400,2022,358400,Middlesex County,Massachusetts,129,0,81,23,25,3641,52,86,239,111,111,1082,1960,0,62.8,17.8,19.4,1.4,2.4,6.6,3,3,29.7,53.8,1979,171771,248441,4822,149,3.1,4673,96.9,2984,61.9,49,1,0,0,1411,29.3,0,0,0,0,229,4.7,663
Lincoln-Sudbury - Lincoln-Sudbury Regional High,381,625,,641,Massachusetts,42.3976253,-71.4003459,390 Lincoln Road,1776,Middlesex County,Sudbury,25017,"390 Lincoln Road, Sudbury, Massachusetts, 01776",365100,25017365100,2022,365100,Middlesex County,Massachusetts,429,153,139,40,97,5206,32,0,316,177,66,2162,2453,35.7,32.4,9.3,22.6,0.6,0,6.1,3.4,1.3,41.5,47.1,2556,250001,325238,8049,75,0.9,7974,99.1,6482,80.5,245,3,0,0,750,9.3,23,0.3,58,0.7,416,5.2,625
Littleton - Littleton High School,111,603,,596,Massachusetts,42.5412103,-71.5074766,56 King Street,1460,Middlesex County,Littleton,25017,"56 King Street, Littleton, Massachusetts, 01460",324102,25017324102,2022,324102,Middlesex County,Massachusetts,334,37,108,146,43,2996,6,6,662,348,162,883,929,11.1,32.3,43.7,12.9,0.2,0.2,22.1,11.6,5.4,29.5,31,1515,163083,191379,4323,96,2.2,4227,97.8,3789,87.6,60,1.4,0,0,206,4.8,0,0,61,1.4,111,2.6,603
Longmeadow - Longmeadow High,217,611,,606,Massachusetts,42.05501,-72.5597614,95 Grassy Gutter Road,1106,Hampden County,Longmeadow,25013,"95 Grassy Gutter Road, Longmeadow, Massachusetts, 01106",813304,25013813304,2022,813304,Hampden County,Massachusetts,193,24,40,106,23,3026,46,48,302,292,271,1134,933,12.4,20.7,54.9,11.9,1.5,1.6,10,9.6,9,37.5,30.8,1531,136011,182483,4089,86,2.1,4003,97.9,3443,84.2,0,0,0,0,464,11.3,0,0,0,0,96,2.3,611
Lowell - Lowell High,316,520,,532,Massachusetts,42.6474157,-71.3118269,50 Father Morissette Boulevard,1852,Middlesex County,Lowell,25017,"50 Father Morissette Boulevard, Lowell, Massachusetts, 01852",310102,25017310102,2022,310102,Middlesex County,Massachusetts,375,46,140,117,72,1894,219,92,417,198,84,443,441,12.3,37.3,31.2,19.2,11.6,4.9,22,10.5,4.4,23.4,23.3,1341,50540,81852,2721,728,26.8,1993,73.2,1586,58.3,134,4.9,0,0,199,7.3,0,0,0,0,74,2.7,520
Ludlow - Ludlow Senior High,123,562,,559,Massachusetts,42.1600936,-72.475919,,N/A,Hampden County,Ludlow,25013,,810403,25013810403,2022,810403,Hampden County,Massachusetts,467,77,170,149,71,3231,289,230,929,763,505,409,106,16.5,36.4,31.9,15.2,8.9,7.1,28.8,23.6,15.6,12.7,3.3,1938,52120,66073,4338,836,19.3,3502,80.7,3185,73.4,68,1.6,0,0,130,3,0,0,0,0,119,2.7,562
Lunenburg - Lunenburg High,73,582,,582,Massachusetts,42.5971299,-71.7416301,,1462,Worcester County,Lunenburg,25027,,712101,25027712101,2022,712101,Worcester County,Massachusetts,485,1,126,327,31,5582,105,202,1822,796,530,1384,743,0.2,26,67.4,6.4,1.9,3.6,32.6,14.3,9.5,24.8,13.3,3136,98529,111437,7758,310,4,7448,96,6903,89,112,1.4,0,0,80,1,0,0,143,1.8,210,2.7,582
Lynn - Classical High,103,513,,507,Massachusetts,42.4651718,-70.9851685,235 O'Callaghan Way,1905,Essex County,Lynn,25009,"235 O'Callaghan Way, Lynn, Massachusetts, 01905",205600,25009205600,2022,205600,Essex County,Massachusetts,367,12,143,173,39,2448,210,135,846,493,328,319,117,3.3,39,47.1,10.6,8.6,5.5,34.6,20.1,13.4,13,4.8,1491,70775,80518,3737,1204,32.2,2533,67.8,1756,47,471,12.6,0,0,122,3.3,0,0,53,1.4,131,3.5,513
Lynn - Lynn English High,86,536,,520,Massachusetts,42.4767269,-70.9436288,50 Goodridge Street,1902,Essex County,Lynn,25009,"50 Goodridge Street, Lynn, Massachusetts, 01902",206300,25009206300,2022,206300,Essex County,Massachusetts,349,119,118,72,40,3052,482,397,1058,444,420,202,49,34.1,33.8,20.6,11.5,15.8,13,34.7,14.5,13.8,6.6,1.6,1732,78937,93436,4706,2470,52.5,2236,47.5,1241,26.4,336,7.1,0,0,238,5.1,0,0,43,0.9,378,8,536
Lynn - Lynn Vocational Technical Institute,22,469,,450,Massachusetts,42.4596236,-70.9548656,80 Neptune Boulevard,1902,Essex County,Lynn,25009,"80 Neptune Boulevard, Lynn, Massachusetts, 01902",207200,25009207200,2022,207200,Essex County,Massachusetts,186,28,24,95,39,1886,390,233,562,363,124,190,24,15.1,12.9,51.1,21,20.7,12.4,29.8,19.2,6.6,10.1,1.3,1020,36300,63024,2570,1234,48,1336,52,554,21.6,402,15.6,0,0,371,14.4,0,0,0,0,9,0.4,469
Lynnfield - Lynnfield High,167,586,,586,Massachusetts,42.5392688,-71.0305334,275 Essex Street,1940,Essex County,Lynnfield,25009,"275 Essex Street, Lynnfield, Massachusetts, 01940",209200,25009209200,2022,209200,Essex County,Massachusetts,465,7,108,113,237,3923,74,40,560,430,172,1220,1427,1.5,23.2,24.3,51,1.9,1,14.3,11,4.4,31.1,36.4,1992,174583,273677,5820,127,2.2,5693,97.8,5130,88.1,6,0.1,0,0,288,4.9,0,0,23,0.4,246,4.2,586
MATCH Charter Public School (District) - MATCH Charter Public School,62,471,,485,Massachusetts,42.3522139,-71.1209456,1001 Commonwealth Avenue,2215,Suffolk County,Boston,25025,"1001 Commonwealth Avenue, Boston, Massachusetts, 02215",807,25025000807,2022,807,Suffolk County,Massachusetts,3004,9,718,2271,6,57,0,0,23,13,0,14,7,0.3,23.9,75.6,0.2,0,0,40.4,22.8,0,24.6,12.3,0,-666666666,-666666666,3079,240,7.8,2839,92.2,1729,56.2,331,10.8,0,0,583,18.9,0,0,16,0.5,180,5.8,471
Ma Academy for Math and Science - Ma Academy for Math and Science School,67,720,,762,Massachusetts,42.2764361,-71.7997353,85 Prescott Street,1605,Worcester County,Worcester,25027,"85 Prescott Street, Worcester, Massachusetts, 01605",730500,25027730500,2022,730500,Worcester County,Massachusetts,306,21,53,226,6,2400,16,51,928,534,125,515,231,6.9,17.3,73.9,2,0.7,2.1,38.7,22.3,5.2,21.5,9.6,1465,67552,81422,3901,801,20.5,3100,79.5,1661,42.6,738,18.9,0,0,209,5.4,0,0,165,4.2,327,8.4,720
Malden - Malden High,388,503,,520,Massachusetts,42.4250964,-71.066163,,N/A,Middlesex County,Malden,25017,,341301,25017341301,2022,341301,Middlesex County,Massachusetts,527,0,83,82,362,2987,59,95,372,151,196,1067,1047,0,15.7,15.6,68.7,2,3.2,12.5,5.1,6.6,35.7,35.1,2053,72025,94456,4012,30,0.7,3982,99.3,906,22.6,555,13.8,0,0,2333,58.2,0,0,31,0.8,157,3.9,503
Manchester Essex Regional - Manchester Essex Regional High School,94,613,,606,Massachusetts,42.582067,-70.766247,36 Lincoln Street,1944,Essex County,Manchester-by-the-Sea,25009,"36 Lincoln Street, Manchester-by-the-Sea, Massachusetts, 01944",218100,25009218100,2022,218100,Essex County,Massachusetts,181,24,26,80,51,3807,0,16,161,351,192,1796,1291,13.3,14.4,44.2,28.2,0,0.4,4.2,9.2,5,47.2,33.9,2101,209052,247435,5386,23,0.4,5363,99.6,5054,93.8,0,0,0,0,39,0.7,0,0,182,3.4,88,1.6,613
Mansfield - Mansfield High,258,582,,583,Massachusetts,42.0334565,-71.2190578,,N/A,Bristol County,Mansfield,25005,,610100,25005610100,2022,610100,Bristol County,Massachusetts,374,91,108,120,55,4210,22,98,1156,844,303,722,1065,24.3,28.9,32.1,14.7,0.5,2.3,27.5,20,7.2,17.1,25.3,2433,88234,104651,5702,60,1.1,5642,98.9,4590,80.5,109,1.9,0,0,494,8.7,0,0,0,0,449,7.9,582
Map Academy Charter School (District) - Map Academy Charter School,1,,,,Massachusetts,41.9485544,-70.7113177,11 Resnik Road,2360,Plymouth County,Plymouth,25023,"11 Resnik Road, Plymouth, Massachusetts, 02360",530100,25023530100,2022,530100,Plymouth County,Massachusetts,271,28,170,50,23,3444,47,167,692,667,490,969,412,10.3,62.7,18.5,8.5,1.4,4.8,20.1,19.4,14.2,28.1,12,1987,103073,124674,4376,143,3.3,4233,96.7,3900,89.1,84,1.9,0,0,6,0.1,0,0,64,1.5,179,4.1,0
Marblehead - Marblehead High,233,587,,571,Massachusetts,42.5076926,-70.8479811,High Street,1945,Essex County,Marblehead,25009,"High Street, Marblehead, Massachusetts, 01945",203302,25009203302,2022,203302,Essex County,Massachusetts,317,61,43,148,65,3391,0,0,276,299,167,1450,1199,19.2,13.6,46.7,20.5,0,0,8.1,8.8,4.9,42.8,35.4,2074,143125,231276,4346,77,1.8,4269,98.2,3976,91.5,198,4.6,95,2.2,0,0,0,0,0,0,0,0,587
Marlborough - Marlborough High,142,537,,527,Massachusetts,42.3482768,-71.5443746,High Street,1752,Middlesex County,Marlborough,25017,"High Street, Marlborough, Massachusetts, 01752",321301,25017321301,2022,321301,Middlesex County,Massachusetts,477,54,274,99,50,3090,318,518,825,561,235,422,211,11.3,57.4,20.8,10.5,10.3,16.8,26.7,18.2,7.6,13.7,6.8,1948,62216,65201,4329,1443,33.3,2886,66.7,2394,55.3,130,3,0,0,28,0.6,0,0,83,1.9,251,5.8,537
Marshfield - Marshfield High,304,568,,558,Massachusetts,42.1087031,-70.7415997,167 Forest Street,2050,Plymouth County,Marshfield,25023,"167 Forest Street, Marshfield, Massachusetts, 02050",506102,25023506102,2022,506102,Plymouth County,Massachusetts,651,72,154,312,113,3918,26,204,637,773,263,1287,728,11.1,23.7,47.9,17.4,0.7,5.2,16.3,19.7,6.7,32.8,18.6,2457,114931,174325,5849,80,1.4,5769,98.6,5431,92.9,154,2.6,0,0,21,0.4,0,0,0,0,163,2.8,568
Martha's Vineyard - Martha's Vineyard Regional High,138,561,,537,Massachusetts,41.4179109,-70.5961724,100 Edgartown Vineyard Haven Road,2557,Dukes County,Oak Bluffs,25007,"100 Edgartown Vineyard Haven Road, Oak Bluffs, Massachusetts, 02557",200200,25007200200,2022,200200,Dukes County,Massachusetts,140,102,0,38,0,3965,9,171,880,810,506,750,839,72.9,0,27.1,0,0.2,4.3,22.2,20.4,12.8,18.9,21.2,1952,106284,155903,5327,44,0.8,5283,99.2,4412,82.8,208,3.9,0,0,0,0,0,0,0,0,663,12.4,561
Martha's Vineyard Charter (District) - Martha's Vineyard Charter School,3,,,,Massachusetts,41.4192008,-70.6645507,424 State Road,2575,Dukes County,West Tisbury,25007,"424 State Road, West Tisbury, Massachusetts, 02575",200400,25007200400,2022,200400,Dukes County,Massachusetts,287,0,26,178,83,4056,12,65,600,728,273,982,1396,0,9.1,62,28.9,0.3,1.6,14.8,17.9,6.7,24.2,34.4,1774,128110,218641,5248,126,2.4,5122,97.6,4424,84.3,52,1,135,2.6,89,1.7,0,0,227,4.3,195,3.7,0
Masconomet - Masconomet Regional High School,401,580,,579,Massachusetts,42.6247842,-70.9758056,20 Endicott Road,1921,Essex County,Boxford,25009,"20 Endicott Road, Boxford, Massachusetts, 01921",213100,25009213100,2022,213100,Essex County,Massachusetts,454,39,109,202,104,5782,64,77,672,411,506,2297,1755,8.6,24,44.5,22.9,1.1,1.3,11.6,7.1,8.8,39.7,30.4,2846,209423,273426,8168,184,2.3,7984,97.7,7537,92.3,2,0,0,0,93,1.1,0,0,0,0,352,4.3,580
Mashpee - Mashpee High,68,545,,541,Massachusetts,41.6149256,-70.5062268,500 Old Barnstable Road,2649,Barnstable County,Mashpee,25001,"500 Old Barnstable Road, Mashpee, Massachusetts, 02649",15100,25001015100,2022,15100,Barnstable County,Massachusetts,385,59,69,257,0,3125,21,32,654,788,298,924,408,15.3,17.9,66.8,0,0.7,1,20.9,25.2,9.5,29.6,13.1,1830,85000,122930,4101,73,1.8,4028,98.2,3739,91.2,55,1.3,9,0.2,101,2.5,0,0,56,1.4,68,1.7,545
Maynard - Maynard High,73,588,,555,Massachusetts,42.4072107,-71.3824374,,N/A,Middlesex County,N/A,25017,,365100,25017365100,2022,365100,Middlesex County,Massachusetts,429,153,139,40,97,5206,32,0,316,177,66,2162,2453,35.7,32.4,9.3,22.6,0.6,0,6.1,3.4,1.3,41.5,47.1,2556,250001,325238,8049,75,0.9,7974,99.1,6482,80.5,245,3,0,0,750,9.3,23,0.3,58,0.7,416,5.2,588
Medfield - Medfield Senior High,240,596,,599,Massachusetts,42.185541,-71.3089507,,2052,Norfolk County,Medfield,25021,,406101,25021406101,2022,406101,Norfolk County,Massachusetts,405,126,68,106,105,3881,73,26,237,277,210,1483,1575,31.1,16.8,26.2,25.9,1.9,0.7,6.1,7.1,5.4,38.2,40.6,2181,187663,258369,5959,127,2.1,5832,97.9,5483,92,12,0.2,0,0,182,3.1,0,0,0,0,155,2.6,596
Medford - Medford High,182,575,,561,Massachusetts,42.4303743,-71.1253373,489 Winthrop Street,2155,Middlesex County,Medford,25017,"489 Winthrop Street, Medford, Massachusetts, 02155",339102,25017339102,2022,339102,Middlesex County,Massachusetts,157,64,32,21,40,2662,42,38,684,221,265,741,671,40.8,20.4,13.4,25.5,1.6,1.4,25.7,8.3,10,27.8,25.2,1294,136471,204534,3464,15,0.4,3449,99.6,3212,92.7,26,0.8,0,0,36,1,0,0,32,0.9,143,4.1,575
Medway - Medway High,215,582,,577,Massachusetts,42.1417641,-71.3967256,,2053,Norfolk County,Medway,25021,,408102,25021408102,2022,408102,Norfolk County,Massachusetts,389,28,181,132,48,3363,13,51,426,554,298,1157,864,7.2,46.5,33.9,12.3,0.4,1.5,12.7,16.5,8.9,34.4,25.7,1854,136298,167599,4942,367,7.4,4575,92.6,3926,79.4,73,1.5,6,0.1,318,6.4,0,0,18,0.4,234,4.7,582
Melrose - Melrose High,230,584,,551,Massachusetts,42.4640415,-71.0647229,360 Lynn Fells Parkway,2176,Middlesex County,Melrose,25017,"360 Lynn Fells Parkway, Melrose, Massachusetts, 02176",336100,25017336100,2022,336100,Middlesex County,Massachusetts,152,0,81,71,0,4174,172,108,684,506,118,1527,1059,0,53.3,46.7,0,4.1,2.6,16.4,12.1,2.8,36.6,25.4,2500,102375,127978,5289,257,4.9,5032,95.1,4052,76.6,103,1.9,0,0,513,9.7,0,0,23,0.4,341,6.4,584
Mendon-Upton - Nipmuc Regional High,165,587,,558,Massachusetts,42.1593095,-71.6165577,90 Pleasant Street,1568,Worcester County,Upton,25027,"90 Pleasant Street, Upton, Massachusetts, 01568",743100,25027743100,2022,743100,Worcester County,Massachusetts,401,1,101,168,131,5703,41,88,842,1062,372,2075,1223,0.2,25.2,41.9,32.7,0.7,1.5,14.8,18.6,6.5,36.4,21.4,2733,145129,178318,8037,445,5.5,7592,94.5,6557,81.6,426,5.3,0,0,312,3.9,0,0,40,0.5,257,3.2,587
Methuen - Methuen High,245,544,,541,Massachusetts,42.7330631,-71.1715565,1 Ranger Road,1844,Essex County,Methuen,25009,"1 Ranger Road, Methuen, Massachusetts, 01844",252502,25009252502,2022,252502,Essex County,Massachusetts,466,33,208,209,16,3207,92,170,1049,625,297,666,308,7.1,44.6,44.8,3.4,2.9,5.3,32.7,19.5,9.3,20.8,9.6,1701,86621,106918,4837,1425,29.5,3412,70.5,2827,58.4,175,3.6,0,0,182,3.8,0,0,20,0.4,208,4.3,544
Middleborough - Middleborough High,135,537,,529,Massachusetts,41.8924447,-70.9090921,,N/A,Plymouth County,Middleborough,25023,,542301,25023542301,2022,542301,Plymouth County,Massachusetts,439,47,161,152,79,2343,140,102,919,525,116,443,98,10.7,36.7,34.6,18,6,4.4,39.2,22.4,5,18.9,4.2,1595,90919,89955,3750,381,10.2,3369,89.8,3204,85.4,25,0.7,0,0,7,0.2,0,0,108,2.9,25,0.7,537
Milford - Milford High,172,547,,526,Massachusetts,42.1508582,-71.5324091,,1757,Worcester County,Milford,25027,,744400,25027744400,2022,744400,Worcester County,Massachusetts,249,12,42,155,40,2856,217,315,878,401,194,559,292,4.8,16.9,62.2,16.1,7.6,11,30.7,14,6.8,19.6,10.2,1521,78203,106228,4274,645,15.1,3629,84.9,2836,66.4,40,0.9,0,0,105,2.5,0,0,238,5.6,410,9.6,547
Millbury - Millbury Junior/Senior High,69,531,,539,Massachusetts,42.1996901,-71.7673634,12 Martin Street,1527,Worcester County,Millbury,25027,"12 Martin Street, Millbury, Massachusetts, 01527",737300,25027737300,2022,737300,Worcester County,Massachusetts,295,19,37,156,83,5044,144,183,1418,941,618,1015,725,6.4,12.5,52.9,28.1,2.9,3.6,28.1,18.7,12.3,20.1,14.4,2460,116530,128567,6819,395,5.8,6424,94.2,5545,81.3,45,0.7,24,0.4,479,7,41,0.6,0,0,290,4.3,531
Millis - Millis High School,78,584,,567,Massachusetts,42.162609,-71.3581036,245 Plain Street,2054,Norfolk County,Millis,25021,"245 Plain Street, Millis, Massachusetts, 02054",407101,25021407101,2022,407101,Norfolk County,Massachusetts,391,22,56,74,239,3173,73,125,566,596,234,883,696,5.6,14.3,18.9,61.1,2.3,3.9,17.8,18.8,7.4,27.8,21.9,1713,146069,151481,4566,87,1.9,4479,98.1,4042,88.5,79,1.7,0,0,34,0.7,0,0,9,0.2,315,6.9,584
Milton - Milton High,341,581,,566,Massachusetts,42.2511977,-71.0900295,25 Gile Road,2186,Norfolk County,Milton,25021,"25 Gile Road, Milton, Massachusetts, 02186",416200,25021416200,2022,416200,Norfolk County,Massachusetts,256,0,46,122,88,5166,163,79,1027,477,471,1499,1450,0,18,47.7,34.4,3.2,1.5,19.9,9.2,9.1,29,28.1,2361,129413,165172,6991,404,5.8,6587,94.2,2816,40.3,2991,42.8,0,0,370,5.3,0,0,0,0,410,5.9,581
Minuteman Regional Vocational Technical - Minuteman Regional High,86,593,,561,Massachusetts,42.4462044,-71.2739514,758 Marrett Road,2421,Middlesex County,Lexington,25017,"758 Marrett Road, Lexington, Massachusetts, 02421",358400,25017358400,2022,358400,Middlesex County,Massachusetts,129,0,81,23,25,3641,52,86,239,111,111,1082,1960,0,62.8,17.8,19.4,1.4,2.4,6.6,3,3,29.7,53.8,1979,171771,248441,4822,149,3.1,4673,96.9,2984,61.9,49,1,0,0,1411,29.3,0,0,0,0,229,4.7,593
Mohawk Trail - Mohawk Trail Regional School,17,576,,541,Massachusetts,42.6151742,-72.7543385,26 Ashfield Road,1370,Franklin County,Buckland,25011,"26 Ashfield Road, Buckland, Massachusetts, 01370",41502,25011041502,2022,41502,Franklin County,Massachusetts,196,19,91,75,11,2704,23,77,533,351,324,710,686,9.7,46.4,38.3,5.6,0.9,2.8,19.7,13,12,26.3,25.4,1593,76829,85295,3411,229,6.7,3182,93.3,2991,87.7,15,0.4,0,0,52,1.5,0,0,0,0,124,3.6,576
Monomoy Regional School District - Monomoy Regional High School,107,575,,558,Massachusetts,41.6901713,-70.0674697,75 Oak Street,2645,Barnstable County,Harwich,25001,"75 Oak Street, Harwich, Massachusetts, 02645",11100,25001011100,2022,11100,Barnstable County,Massachusetts,382,60,178,26,118,4287,21,32,1051,899,470,873,941,15.7,46.6,6.8,30.9,0.5,0.7,24.5,21,11,20.4,22,2367,91801,114654,5285,0,0,5285,100,5265,99.6,6,0.1,0,0,14,0.3,0,0,0,0,0,0,575
Monson - Monson High School,13,559,,555,Massachusetts,42.1153427,-72.3240665,55 Margaret Street,1057,Hampden County,Monson,25013,"55 Margaret Street, Monson, Massachusetts, 01057",813702,25013813702,2022,813702,Hampden County,Massachusetts,321,32,23,191,75,3614,89,178,1226,723,457,528,413,10,7.2,59.5,23.4,2.5,4.9,33.9,20,12.6,14.6,11.4,1967,85924,110119,4684,253,5.4,4431,94.6,4256,90.9,31,0.7,0,0,27,0.6,0,0,0,0,117,2.5,559
Montachusett Regional Vocational Technical - Montachusett Regional Vocational Technical,101,565,,540,Massachusetts,42.5607928,-71.8608141,1050 Westminster Street,1420,Worcester County,Fitchburg,25027,"1050 Westminster Street, Fitchburg, Massachusetts, 01420",710300,25027710300,2022,710300,Worcester County,Massachusetts,463,132,124,182,25,2426,19,171,925,570,183,366,192,28.5,26.8,39.3,5.4,0.8,7,38.1,23.5,7.5,15.1,7.9,1424,83824,89024,3602,884,24.5,2718,75.5,2304,64,100,2.8,0,0,178,4.9,0,0,0,0,136,3.8,565
Mount Greylock - Mt Greylock Regional High,95,619,,597,Massachusetts,42.6714085,-73.2412428,1781 Cold Spring Road,1267,Berkshire County,Williamstown,25003,"1781 Cold Spring Road, Williamstown, Massachusetts, 01267",920102,25003920102,2022,920102,Berkshire County,Massachusetts,916,0,63,853,0,1573,8,33,247,193,65,441,586,0,6.9,93.1,0,0.5,2.1,15.7,12.3,4.1,28,37.3,879,95938,153966,2886,126,4.4,2760,95.6,2420,83.9,89,3.1,6,0.2,176,6.1,0,0,13,0.5,56,1.9,619
Mystic Valley Regional Charter (District) - Mystic Valley Regional Charter School,101,588,,595,Massachusetts,42.4349332,-71.044173,4 Laurel Street,2148,Middlesex County,Malden,25017,"4 Laurel Street, Malden, Massachusetts, 02148",341700,25017341700,2022,341700,Middlesex County,Massachusetts,797,194,265,186,152,3702,256,354,1062,516,160,813,541,24.3,33.2,23.3,19.1,6.9,9.6,28.7,13.9,4.3,22,14.6,2109,91602,134904,5632,852,15.1,4780,84.9,2561,45.5,1027,18.2,0,0,646,11.5,0,0,43,0.8,503,8.9,588
Nantucket - Nantucket High,86,520,,501,Massachusetts,41.2803507,-70.1010184,High Street,2554,Nantucket County,Nantucket,25019,"High Street, Nantucket, Massachusetts, 02554",950100,25019950100,2022,950100,Nantucket County,Massachusetts,273,16,53,173,31,1560,0,23,106,153,106,746,426,5.9,19.4,63.4,11.4,0,1.5,6.8,9.8,6.8,47.8,27.3,847,126339,186450,2120,86,4.1,2034,95.9,1903,89.8,101,4.8,0,0,0,0,0,0,8,0.4,22,1,520
Narragansett - Narragansett Regional High,23,575,,527,Massachusetts,42.5883317,-72.0744806,464 Baldwinville Road,1436,Worcester County,Templeton,25027,"464 Baldwinville Road, Templeton, Massachusetts, 01436",705102,25027705102,2022,705102,Worcester County,Massachusetts,375,20,191,148,16,3199,238,147,794,867,468,414,271,5.3,50.9,39.5,4.3,7.4,4.6,24.8,27.1,14.6,12.9,8.5,1682,91507,96623,4656,152,3.3,4504,96.7,4481,96.2,11,0.2,0,0,0,0,0,0,0,0,12,0.3,575
Nashoba - Nashoba Regional,288,590,,593,Massachusetts,42.4496749,-71.6332092,12 Green Road,1740,Worcester County,Bolton,25027,"12 Green Road, Bolton, Massachusetts, 01740",715100,25027715100,2022,715100,Worcester County,Massachusetts,313,3,95,134,81,3801,11,18,358,298,185,1372,1559,1,30.4,42.8,25.9,0.3,0.5,9.4,7.8,4.9,36.1,41,1882,191208,224989,5653,223,3.9,5430,96.1,4796,84.8,0,0,28,0.5,353,6.2,0,0,98,1.7,155,2.7,590
Nashoba Valley Regional Vocational Technical - Nashoba Valley Technical High School,34,541,,516,Massachusetts,42.5708367,-71.4095342,100 Littleton Road,1886,Middlesex County,Westford,25017,"100 Littleton Road, Westford, Massachusetts, 01886",318400,25017318400,2022,318400,Middlesex County,Massachusetts,292,16,125,80,71,2914,65,32,210,281,117,1002,1207,5.5,42.8,27.4,24.3,2.2,1.1,7.2,9.6,4,34.4,41.4,1628,156364,192204,4491,30,0.7,4461,99.3,3089,68.8,0,0,0,0,1201,26.7,0,0,39,0.9,132,2.9,541
Natick - Natick High,373,597,,589,Massachusetts,42.2799398,-71.3538922,High Street,1760,Middlesex County,Natick,25017,"High Street, Natick, Massachusetts, 01760",382400,25017382400,2022,382400,Middlesex County,Massachusetts,291,35,63,139,54,3829,0,33,728,429,246,1133,1260,12,21.6,47.8,18.6,0,0.9,19,11.2,6.4,29.6,32.9,2239,114787,148464,5279,327,6.2,4952,93.8,4475,84.8,23,0.4,0,0,368,7,0,0,0,0,86,1.6,597
Nauset - Nauset Regional High,202,582,,556,Massachusetts,41.8587188,-69.9693527,100 Cable Road,2642,Barnstable County,Eastham,25001,"100 Cable Road, Eastham, Massachusetts, 02642",10306,25001010306,2022,10306,Barnstable County,Massachusetts,154,51,28,56,19,2425,105,78,521,332,229,632,528,33.1,18.2,36.4,12.3,4.3,3.2,21.5,13.7,9.4,26.1,21.8,1361,81078,105017,2985,0,0,2985,100,2605,87.3,223,7.5,10,0.3,18,0.6,0,0,0,0,129,4.3,582
Needham - Needham High,368,637,,640,Massachusetts,42.2862098,-71.2308301,609 Webster Street,2494,Norfolk County,Needham,25021,"609 Webster Street, Needham, Massachusetts, 02494",457200,25021457200,2022,457200,Norfolk County,Massachusetts,403,44,100,181,78,3984,74,22,366,319,174,1092,1937,10.9,24.8,44.9,19.4,1.9,0.6,9.2,8,4.4,27.4,48.6,2083,211754,269463,6119,294,4.8,5825,95.2,4555,74.4,473,7.7,24,0.4,654,10.7,0,0,18,0.3,101,1.7,637
Neighborhood House Charter (District) - Neighborhood House Charter School,94,433,,441,Massachusetts,42.4072107,-71.3824374,,N/A,Middlesex County,N/A,25017,,365100,25017365100,2022,365100,Middlesex County,Massachusetts,429,153,139,40,97,5206,32,0,316,177,66,2162,2453,35.7,32.4,9.3,22.6,0.6,0,6.1,3.4,1.3,41.5,47.1,2556,250001,325238,8049,75,0.9,7974,99.1,6482,80.5,245,3,0,0,750,9.3,23,0.3,58,0.7,416,5.2,433
New Bedford - New Bedford High,142,511,,478,Massachusetts,41.64415,-70.94851,,2740,Bristol County,New Bedford,25005,,651002,25005651002,2022,651002,Bristol County,Massachusetts,352,30,154,108,60,3032,156,99,1242,382,220,543,390,8.5,43.8,30.7,17,5.1,3.3,41,12.6,7.3,17.9,12.9,1634,95278,107230,4426,828,18.7,3598,81.3,2506,56.6,409,9.2,0,0,126,2.8,0,0,115,2.6,442,10,511
New Bedford - Whaling City Junior/Senior High School,2,,,,Massachusetts,41.655444,-70.9620347,581 Hathaway Road,2740,Bristol County,New Bedford,25005,"581 Hathaway Road, New Bedford, Massachusetts, 02740",651001,25005651001,2022,651001,Bristol County,Massachusetts,442,32,81,190,139,2089,90,254,828,499,92,269,57,7.2,18.3,43,31.4,4.3,12.2,39.6,23.9,4.4,12.9,2.7,1181,56406,79002,3027,179,5.9,2848,94.1,2322,76.7,128,4.2,0,0,155,5.1,0,0,21,0.7,222,7.3,0
New Heights Charter School of Brockton (District) - New Heights Charter School of Brockton,17,483,,496,Massachusetts,42.0518755,-71.0105261,1690 Main Street,2301,Plymouth County,Brockton,25023,"1690 Main Street, Brockton, Massachusetts, 02301",511602,25023511602,2022,511602,Plymouth County,Massachusetts,279,28,123,101,27,2587,277,151,716,529,107,362,445,10,44.1,36.2,9.7,10.7,5.8,27.7,20.4,4.1,14,17.2,1495,54010,101513,3500,437,12.5,3063,87.5,1448,41.4,969,27.7,0,0,145,4.1,0,0,264,7.5,237,6.8,483
Newburyport - Newburyport High,191,587,,574,Massachusetts,42.8131417,-70.8862475,241 High Street,1950,Essex County,Newburyport,25009,"241 High Street, Newburyport, Massachusetts, 01950",268300,25009268300,2022,268300,Essex County,Massachusetts,226,0,66,96,64,3232,82,109,496,593,62,875,1015,0,29.2,42.5,28.3,2.5,3.4,15.3,18.3,1.9,27.1,31.4,1961,99826,164618,4090,132,3.2,3958,96.8,3728,91.1,0,0,0,0,185,4.5,0,0,0,0,45,1.1,587
Newton - Newton North High,468,622,,627,Massachusetts,42.3451469,-71.2075289,457 Walnut Street,2460,Middlesex County,Newton,25017,"457 Walnut Street, Newton, Massachusetts, 02460",373400,25017373400,2022,373400,Middlesex County,Massachusetts,460,39,293,61,67,2369,13,10,199,106,62,656,1323,8.5,63.7,13.3,14.6,0.5,0.4,8.4,4.5,2.6,27.7,55.8,1324,146563,216320,3520,74,2.1,3446,97.9,2842,80.7,65,1.8,30,0.9,268,7.6,0,0,30,0.9,211,6,622
Newton - Newton South High,512,636,,648,Massachusetts,42.313694,-71.186223,140 Brandeis Road,2459,Middlesex County,Newton,25017,"140 Brandeis Road, Newton, Massachusetts, 02459",373902,25017373902,2022,373902,Middlesex County,Massachusetts,165,43,71,30,21,2814,13,0,88,208,178,780,1547,26.1,43,18.2,12.7,0.5,0,3.1,7.4,6.3,27.7,55,1417,187723,302143,3641,226,6.2,3415,93.8,2787,76.5,47,1.3,0,0,494,13.6,0,0,46,1.3,41,1.1,636
Norfolk County Agricultural - Norfolk County Agricultural,81,557,,507,Massachusetts,42.1634932,-71.2382192,400 Main Street,2081,Norfolk County,Walpole,25021,"400 Main Street, Walpole, Massachusetts, 02081",411200,25021411200,2022,411200,Norfolk County,Massachusetts,477,65,135,76,201,5035,225,78,836,502,488,1703,1203,13.6,28.3,15.9,42.1,4.5,1.5,16.6,10,9.7,33.8,23.9,2717,137019,173188,7724,601,7.8,7123,92.2,6005,77.7,182,2.4,0,0,676,8.8,0,0,0,0,260,3.4,557
